     2.11           OBSERVATION DATA    M (MIXED)           RINEX VERSION / TYPE
VRS3Net             Reference Data Shop 19-MAY-11 14:54     PGM / RUN BY / DATE 
GNIE                                                        MARKER NAME         
GNIE                                                        MARKER NUMBER       
Trimble Navigation  Trimble Navigation Limited              OBSERVER / AGENCY   
4636121831          TRIMBLE NETRS                           REC # / TYPE / VERS 
60177717            TRM41249.00     TZGD                    ANT # / TYPE        
  3706494.2669  1174619.7856  5039231.9817                  APPROX POSITION XYZ 
        0.0000        0.0000        0.0000                  ANTENNA: DELTA H/E/N
     1     1     0                                          WAVELENGTH FACT L1/2
     8    C1    L1    D1    S1    P2    L2    D2    S2      # / TYPES OF OBSERV 
    10.000                                                  INTERVAL            
     0                                                      RCV CLOCK OFFS APPL 
    15                                                      LEAP SECONDS        
2011  05    11    05    00       00.0000000     GPS         TIME OF FIRST OBS   
                                                            END OF HEADER       
 11 05 11  5  0  0.0000000  0 11G11G14G17G19G20G22G23G24G28G31G32    0.000000000
  20571204.114   -24660862.94617                        51.000    20571199.693  
 -18423975.78218                        40.000  
  22736815.339   -13882982.98916                        43.000    22736812.223  
  -9840325.42917                        30.000  
  23241209.362   -11267507.68616                        45.000    23241206.837  
  -8740616.52117                        30.000  
  24610538.371    -3735756.94615                        41.000    24610536.658  
  -2183200.90916                        22.000  
  21470596.349   -17564111.67416                        46.000    21470592.008  
 -13648219.79018                        36.000  
  25440410.090    -1107201.57314                        38.000    25440406.764  
   1071756.99615                        18.000  
  24340958.241    -7097960.49116                        46.000    24340955.572  
  -5490115.84417                        27.000  
  20201419.945   -26956813.82617                        52.000    20201417.180  
 -19456467.09018                        41.000  
  25211316.831    -2585441.41814                        38.000    25211314.362  
  -1293233.23215                        17.000  
  24009263.056    -7771210.26816                        43.000    24009261.591  
  -5852436.55816                        25.000  
  20507286.736   -24422368.71217                        51.000    20507283.909  
 -18991504.39818                        40.000  
 11 05 11  5  0 10.0000000  0 11G11G14G17G19G20G22G23G24G28G31G32    0.000000000
  20573996.612   -24646188.989 7                        51.000    20573992.239  
 -18412541.537 8                        39.000  
  22741594.090   -13857868.991 6                        44.000    22741591.142  
  -9820756.101 7                        30.000  
  23236795.849   -11290700.374 6                        44.000    23236793.538  
  -8758688.752 7                        30.000  
  24617712.269    -3698065.329 5                        41.000    24617709.232  
  -2153830.850 6                        22.000  
  21465951.441   -17588519.791 6                        47.000    21465947.539  
 -13667239.098 8                        36.000  
  25446738.072    -1073948.472 4                        39.000    25446734.526  
   1097668.458 5                        18.000  
  24333771.303    -7135728.918 6                        46.000    24333767.699  
  -5519545.772 7                        27.000  
  20201441.787   -26956699.541 7                        52.000    20201438.803  
 -19456378.037 8                        41.000  
  25215779.724    -2561984.598 4                        38.000    25215778.232  
  -1274955.163 5                        16.000  
  24004071.488    -7798493.837 6                        43.000    24004069.770  
  -5873696.424 6                        26.000  
  20506269.407   -24427714.239 7                        50.000    20506266.621  
 -18995669.737 8                        39.000  
 11 05 11  5  0 20.0000000  0 11G11G14G17G19G20G22G23G24G28G31G32    0.000000000
  20576798.959   -24631460.671 7                        51.000    20576795.152  
 -18401064.936 8                        40.000  
  22746381.464   -13832711.717 6                        44.000    22746378.245  
  -9801153.036 7                        29.000  
  23232392.190   -11313843.868 6                        44.000    23232389.093  
  -8776722.633 7                        30.000  
  24624884.540    -3660369.470 5                        41.000    24624882.334  
  -2124457.501 6                        22.000  
  21461313.663   -17612894.486 6                        46.000    21461309.206  
 -13686232.364 8                        36.000  
  25453066.509    -1040695.830 4                        39.000    25453062.284  
   1123579.586 5                        18.000  
  24326585.867    -7173488.893 6                        46.000    24326582.217  
  -5548969.142 6                        26.000  
  20201473.183   -26956535.124 8                        53.000    20201470.618  
 -19456249.929 8                        41.000  
  25220249.149    -2538500.958 3                        37.000    25220246.920  
  -1256656.272 5                        18.000  
  23998885.127    -7825745.809 5                        42.000    23998883.867  
  -5894931.679 6                        25.000  
  20505261.183   -24433015.266 7                        50.000    20505257.666  
 -18999800.407 8                        40.000  
 11 05 11  5  0 30.0000000  0 11G11G14G17G19G20G22G23G24G28G31G32    0.000000000
  20579612.365   -24616677.220 7                        51.000    20579607.831  
 -18389545.374 8                        39.000  
  22751177.580   -13807510.467 6                        44.000    22751174.220  
  -9781515.706 7                        30.000  
  23227997.751   -11336937.270 6                        43.000    23227995.041  
  -8794717.495 7                        30.000  
  24632059.280    -3622668.667 5                        41.000    24632057.363  
  -2095080.297 6                        22.000  
  21456681.376   -17637234.905 6                        47.000    21456677.739  
 -13705198.913 8                        36.000  
  25459393.742    -1007442.914 4                        39.000    25459390.407  
   1149490.928 6                        19.000  
  24319402.116    -7211239.603 6                        46.000    24319398.814  
  -5578385.248 6                        26.000  
  20201513.863   -26956319.665 7                        52.000    20201511.355  
 -19456082.040 8                        41.000  
  25224723.120    -2514989.803 3                        37.000    25224721.229  
  -1238335.847 5                        16.000  
  23993706.034    -7852965.247 5                        42.000    23993704.536  
  -5916141.618 6                        25.000  
  20504260.731   -24438270.916 7                        50.000    20504257.554  
 -19003895.714 8                        40.000  
 11 05 11  5  0 40.0000000  0 11G11G14G17G19G20G22G23G24G28G31G32    0.000000000
  20582436.092   -24601838.575 7                        51.000    20582431.665  
 -18377982.809 8                        40.000  
  22755980.898   -13782265.176 6                        44.000    22755978.094  
  -9761844.061 7                        30.000  
  23223612.459   -11359980.391 6                        45.000    23223609.878  
  -8812673.182 7                        30.000  
  24639234.058    -3584962.924 5                        40.000    24639231.828  
  -2065699.238 6                        22.000  
  21452056.475   -17661540.845 7                        48.000    21452052.281  
 -13724138.618 8                        36.000  
  25465721.612     -974189.503 3                        36.000    25465718.633  
   1175402.638 5                        16.000  
  24312220.255    -7248980.838 6                        45.000    24312216.356  
  -5607793.987 6                        26.000  
  20201564.820   -26956053.071 7                        52.000    20201562.153  
 -19455874.308 8                        41.000  
  25229202.315    -2491451.181 3                        37.000    25229200.716  
  -1219994.117 5                        16.000  
  23988532.471    -7880151.964 5                        42.000    23988530.870  
  -5937326.023 6                        25.000  
  20503269.252   -24443481.082 7                        51.000    20503266.012  
 -19007955.580 8                        40.000  
 11 05 11  5  0 50.0000000  0 11G11G14G17G19G20G22G23G24G28G31G32    0.000000000
  20585270.122   -24586944.766 7                        51.000    20585266.010  
 -18366377.252 8                        40.000  
  22760793.920   -13756975.922 6                        43.000    22760790.429  
  -9742138.166 7                        30.000  
  23219237.212   -11382973.125 6                        44.000    23219234.771  
  -8830589.594 7                        31.000  
  24646410.420    -3547252.253 5                        40.000    24646408.159  
  -2036314.364 6                        22.000  
  21447437.565   -17685812.393 7                        48.000    21447433.761  
 -13743051.504 8                        36.000  
  25472050.165     -940935.673 3                        37.000    25472045.711  
   1201314.701 5                        17.000  
  24305039.811    -7286712.575 6                        46.000    24305037.533  
  -5637195.329 6                        26.000  
  20201625.405   -26955735.327 7                        52.000    20201622.692  
 -19455626.717 8                        41.000  
  25233686.039    -2467885.112 4                        38.000    25233685.085  
  -1201630.935 5                        17.000  
  23983365.434    -7907305.905 5                        42.000    23983363.376  
  -5958484.890 6                        25.000  
  20502286.400   -24448645.802 7                        50.000    20502282.985  
 -19011980.034 8                        40.000  
 11 05 11  5  1  0.0000000  0 11G11G14G17G19G20G22G23G24G28G31G32    0.000000000
  20588115.022   -24571996.183 7                        51.000    20588110.262  
 -18354729.007 8                        40.000  
  22765614.208   -13731643.235 6                        45.000    22765610.915  
  -9722398.415 7                        29.000  
  23214871.447   -11405915.788 6                        45.000    23214868.916  
  -8848466.976 7                        31.000  
  24653587.105    -3509537.177 5                        40.000    24653585.260  
  -2006926.019 6                        22.000  
  21442825.222   -17710049.793 7                        48.000    21442820.850  
 -13761937.791 8                        37.000  
  25478377.998     -907681.804 4                        38.000    25478374.167  
   1227226.759 5                        18.000  
  24297861.788    -7324435.078 6                        46.000    24297858.479  
  -5666589.474 7                        27.000  
  20201695.654   -26955366.822 7                        52.000    20201692.692  
 -19455339.575 8                        41.000  
  25238176.052    -2444292.169 4                        38.000    25238174.563  
  -1183246.822 5                        16.000  
  23978204.107    -7934427.289 5                        42.000    23978202.101  
  -5979618.396 6                        26.000  
  20501312.358   -24453765.472 7                        51.000    20501309.172  
 -19015969.392 8                        40.000  
 11 05 11  5  1 10.0000000  0 11G11G14G17G19G20G22G23G24G28G31G32    0.000000000
  20590970.021   -24556992.450 7                        50.000    20590965.351  
 -18343037.794 8                        40.000  
  22770443.435   -13706266.738 6                        44.000    22770440.111  
  -9702624.539 7                        29.000  
  23210515.109   -11428807.923 6                        46.000    23210512.651  
  -8866305.004 7                        30.000  
  24660765.067    -3471817.408 5                        41.000    24660762.910  
  -1977534.066 6                        22.000  
  21438219.980   -17734252.653 7                        48.000    21438215.553  
 -13780797.149 8                        36.000  
  25484705.667     -874427.504 4                        38.000    25484702.796  
   1253139.206 5                        18.000  
  24290685.069    -7362147.821 6                        46.000    24290681.814  
  -5695975.995 7                        27.000  
  20201775.293   -26954947.093 7                        52.000    20201772.393  
 -19455012.507 8                        41.000  
  25242670.646    -2420671.876 4                        38.000    25242669.197  
  -1164841.402 5                        17.000  
  23973049.185    -7961515.632 6                        43.000    23973047.852  
  -6000726.168 6                        25.000  
  20500346.910   -24458839.647 7                        51.000    20500343.608  
 -19019923.294 8                        40.000  
 11 05 11  5  1 20.0000000  0 11G11G14G17G19G20G22G23G24G28G31G32    0.000000000
  20593835.769   -24541933.582 7                        51.000    20593831.489  
 -18331303.623 8                        40.000  
  22775280.772   -13680846.614 6                        43.000    22775277.249  
  -9682816.667 7                        30.000  
  23206168.635   -11451649.435 6                        46.000    23206165.924  
  -8884103.593 7                        31.000  
  24667943.423    -3434092.979 5                        41.000    24667941.775  
  -1948138.459 6                        22.000  
  21433620.725   -17758420.846 7                        48.000    21433616.418  
 -13799629.522 8                        37.000  
  25491034.133     -841172.795 4                        39.000    25491030.909  
   1279051.940 5                        18.000  
  24283510.627    -7399850.699 6                        45.000    24283506.803  
  -5725354.862 6                        26.000  
  20201865.265   -26954476.150 8                        53.000    20201862.082  
 -19454645.540 8                        41.000  
  25247170.785    -2397024.370 4                        38.000    25247169.224  
  -1146414.820 5                        16.000  
  23967901.395    -7988570.715 6                        43.000    23967899.095  
  -6021808.025 7                        27.000  
  20499389.979   -24463868.348 7                        51.000    20499386.455  
 -19023841.753 8                        40.000  
 11 05 11  5  1 30.0000000  0 11G11G14G17G19G20G22G23G24G28G31G32    0.000000000
  20596711.991   -24526820.043 7                        52.000    20596707.071  
 -18319526.850 8                        40.000  
  22780126.595   -13655383.213 6                        44.000    22780123.356  
  -9662975.071 7                        30.000  
  23201831.827   -11474440.638 6                        46.000    23201829.100  
  -8901862.963 7                        32.000  
  24675123.831    -3396364.329 5                        40.000    24675121.705  
  -1918739.528 6                        22.000  
  21429028.422   -17782554.734 7                        48.000    21429023.951  
 -13818435.148 8                        37.000  
  25497362.709     -807918.243 3                        37.000    25497359.372  
   1304964.556 5                        18.000  
  24276337.859    -7437544.015 6                        46.000    24276333.698  
  -5754726.275 6                        24.000  
  20201964.638   -26953954.298 8                        53.000    20201961.876  
 -19454238.901 8                        41.000  
  25251675.591    -2373350.115 4                        38.000    25251673.824  
  -1127967.370 5                        16.000  
  23962758.734    -8015592.888 5                        42.000    23962756.874  
  -6042864.230 6                        26.000  
  20498441.427   -24468851.909 7                        50.000    20498438.223  
 -19027725.053 8                        40.000  
 11 05 11  5  1 40.0000000  0 11G11G14G17G19G20G22G23G24G28G31G32    0.000000000
  20599598.535   -24511651.557 7                        51.000    20599593.936  
 -18307707.264 8                        40.000  
  22784980.124   -13629876.377 6                        43.000    22784976.814  
  -9643099.627 7                        30.000  
  23197504.430   -11497181.074 6                        45.000    23197501.501  
  -8919582.793 7                        31.000  
  24682304.032    -3358631.232 5                        40.000    24682302.245  
  -1889337.201 6                        22.000  
  21424442.345   -17806653.988 7                        48.000    21424438.031  
 -13837213.785 8                        37.000  
  25503689.326     -774663.380 3                        37.000    25503687.829  
   1330877.397 5                        16.000  
  24269166.740    -7475227.364 6                        45.000    24269163.524  
  -5784089.907 6                        25.000  
  20202073.200   -26953381.261 8                        53.000    20202070.460  
 -19453792.382 8                        41.000  
  25256186.828    -2349648.967 4                        38.000    25256184.429  
  -1109498.971 5                        16.000  
  23957622.997    -8042581.668 5                        42.000    23957621.359  
  -6063894.414 6                        26.000  
  20497502.011   -24473790.093 7                        52.000    20497498.323  
 -19031572.988 8                        40.000  
 11 05 11  5  1 50.0000000  0 11G11G14G17G19G20G22G23G24G28G31G32    0.000000000
  20602495.482   -24496428.051 7                        51.000    20602490.448  
 -18295844.800 8                        40.000  
  22789841.740   -13604326.169 6                        44.000    22789838.722  
  -9623190.383 7                        30.000  
  23193186.749   -11519870.737 6                        47.000    23193183.735  
  -8937263.042 7                        31.000  
  24689484.841    -3320893.841 5                        40.000    24689483.330  
  -1859931.477 6                        22.000  
  21419863.003   -17830718.528 7                        49.000    21419858.395  
 -13855965.381 8                        37.000  
  25510017.811     -741408.369 4                        38.000    25510016.198  
   1356790.427 5                        17.000  
  24261997.833    -7512900.783 6                        45.000    24261994.309  
  -5813445.805 6                        25.000  
  20202192.212   -26952756.989 8                        53.000    20202189.428  
 -19453305.942 8                        41.000  
  25260702.498    -2325921.033 4                        38.000    25260699.037  
  -1091009.658 5                        16.000  
  23952493.628    -8069537.008 6                        43.000    23952491.430  
  -6084898.549 6                        25.000  
  20496571.025   -24478682.894 7                        50.000    20496567.506  
 -19035385.561 8                        40.000  
 11 05 11  5  2  0.0000000  0 11G11G14G17G19G20G22G23G24G28G31G32    0.000000000
  20605402.880   -24481149.753 7                        52.000    20605398.045  
 -18283939.642 8                        40.000  
  22794712.641   -13578732.782 6                        44.000    22794708.923  
  -9603247.500 7                        29.000  
  23188878.970   -11542509.568 6                        47.000    23188875.940  
  -8954903.695 7                        32.000  
  24696666.799    -3283152.283 5                        41.000    24696665.167  
  -1830522.542 6                        21.000  
  21415289.953   -17854748.481 6                        47.000    21415286.543  
 -13874690.016 8                        38.000  
  25516346.341     -708153.272 4                        39.000    25516344.216  
   1382703.477 5                        18.000  
  24254830.361    -7550564.199 6                        45.000    24254827.507  
  -5842793.903 6                        26.000  
  20202320.629   -26952081.585 8                        53.000    20202317.962  
 -19452779.660 9                        42.000  
  25265222.526    -2302166.511 4                        38.000    25265219.668  
  -1072499.632 5                        16.000  
  23947370.487    -8096458.828 6                        43.000    23947368.131  
  -6105876.555 6                        25.000  
  20495648.612   -24483530.489 7                        51.000    20495645.046  
 -19039162.908 8                        40.000  
 11 05 11  5  2 10.0000000  0 11G11G14G17G19G20G22G23G24G28G31G32    0.000000000
  20608320.486   -24465816.917 7                        52.000    20608315.781  
 -18271991.982 8                        40.000  
  22799590.644   -13553096.494 6                        43.000    22799587.403  
  -9583271.193 7                        29.000  
  23184580.512   -11565097.724 6                        47.000    23184577.782  
  -8972504.842 7                        33.000  
  24703849.840    -3245406.866 5                        41.000    24703847.938  
  -1801110.563 6                        22.000  
  21410724.467   -17878743.882 7                        48.000    21410720.287  
 -13893387.723 8                        38.000  
  25522674.909     -674898.360 4                        38.000    25522672.594  
   1408616.368 5                        17.000  
  24247665.769    -7588217.721 6                        45.000    24247662.034  
  -5872134.300 7                        27.000  
  20202459.016   -26951355.190 7                        52.000    20202456.249  
 -19452213.641 8                        41.000  
  25269747.015    -2278385.700 4                        39.000    25269744.534  
  -1053969.150 5                        16.000  
  23942253.367    -8123347.313 6                        44.000    23942251.398  
  -6126828.587 6                        25.000  
  20494734.718   -24488333.030 7                        51.000    20494731.386  
 -19042905.147 8                        40.000  
 11 05 11  5  2 20.0000000  0 11G11G14G17G19G20G22G23G24G28G31G32    0.000000000
  20611248.718   -24450428.866 7                        51.000    20611243.820  
 -18260001.310 8                        40.000  
  22804476.841   -13527416.804 6                        44.000    22804474.434  
  -9563261.045 7                        30.000  
  23180291.928   -11587634.377 6                        46.000    23180289.198  
  -8990065.879 7                        31.000  
  24711033.103    -3207657.034 5                        40.000    24711031.297  
  -1771695.177 6                        22.000  
  21406164.232   -17902704.133 6                        46.000    21406160.756  
 -13912058.044 8                        38.000  
  25529002.794     -641642.993 4                        38.000    25529000.349  
   1434529.608 5                        17.000  
  24240502.155    -7625860.563 6                        45.000    24240499.462  
  -5901466.365 7                        27.000  
  20202607.145   -26950577.122 7                        52.000    20202604.521  
 -19451607.360 8                        41.000  
  25274277.739    -2254578.049 4                        39.000    25274275.145  
  -1035417.747 5                        18.000  
  23937143.293    -8150201.567 6                        43.000    23937141.211  
  -6147753.939 6                        25.000  
  20493829.286   -24493089.848 7                        51.000    20493825.924  
 -19046611.762 8                        40.000  
 11 05 11  5  2 30.0000000  0 11G11G14G17G19G20G22G23G24G28G31G32    0.000000000
  20614187.359   -24434986.141 7                        52.000    20614182.738  
 -18247968.023 8                        40.000  
  22809371.819   -13501694.248 6                        43.000    22809368.449  
  -9543217.514 7                        29.000  
  23176012.898   -11610120.089 6                        47.000    23176010.104  
  -9007587.208 7                        31.000  
  24718217.689    -3169903.400 5                        40.000    24718215.427  
  -1742276.809 6                        22.000  
  21401611.709   -17926629.777 6                        47.000    21401608.279  
 -13930701.386 8                        38.000  
  25535331.762     -608387.778 3                        36.000    25535328.619  
   1460442.743 5                        17.000  
  24233341.220    -7663493.263 6                        44.000    24233337.976  
  -5930790.522 6                        26.000  
  20202764.951   -26949747.975 7                        51.000    20202762.355  
 -19450961.274 9                        42.000  
  25278813.225    -2230744.135 4                        38.000    25278810.544  
  -1016845.865 5                        16.000  
  23932039.801    -8177022.093 6                        44.000    23932037.481  
  -6168653.040 7                        27.000  
  20492932.540   -24497801.512 7                        51.000    20492929.132  
 -19050283.192 8                        40.000  
 11 05 11  5  2 40.0000000  0 11G11G14G17G19G20G22G23G24G28G31G32    0.000000000
  20617136.339   -24419488.727 7                        52.000    20617132.011  
 -18235892.123 8                        40.000  
  22814275.109   -13475928.843 6                        43.000    22814271.857  
  -9523140.588 7                        30.000  
  23171744.463   -11632554.598 6                        47.000    23171741.480  
  -9025068.631 7                        32.000  
  24725402.834    -3132145.913 5                        41.000    24725400.971  
  -1712855.402 6                        23.000  
  21397065.383   -17950520.634 7                        48.000    21397061.677  
 -13949317.639 8                        38.000  
  25541660.012     -575132.557 2                        34.000    25541657.095  
   1486355.843 5                        15.000  
  24226181.693    -7701115.601 6                        44.000    24226178.394  
  -5960106.624 6                        25.000  
  20202932.336   -26948867.560 7                        52.000    20202929.706  
 -19450275.238 8                        41.000  
  25283353.640    -2206884.008 3                        37.000    25283351.133  
   -998253.585 5                        16.000  
  23926942.210    -8203808.555 6                        44.000    23926940.235  
  -6189525.574 6                        26.000  
  20492044.509   -24502467.815 7                        52.000    20492041.810  
 -19053919.266 8                        40.000  
 11 05 11  5  2 50.0000000  0 11G11G14G17G19G20G22G23G24G28G31G32    0.000000000
  20620095.963   -24403936.853 7                        51.000    20620091.357  
 -18223773.789 8                        40.000  
  22819186.010   -13450120.842 6                        44.000    22819182.767  
  -9503030.478 7                        28.000  
  23167484.311   -11654937.967 7                        48.000    23167481.539  
  -9042510.205 7                        32.000  
  24732589.349    -3094384.814 5                        41.000    24732586.921  
  -1683431.225 6                        23.000  
  21392525.489   -17974376.880 6                        47.000    21392522.030  
 -13967906.915 8                        37.000  
  25547987.228     -541877.520 2                        35.000    25547985.371  
   1512268.842 5                        14.000  
  24219024.655    -7738727.609 6                        45.000    24219020.599  
  -5989414.667 6                        26.000  
  20203109.466   -26947936.015 7                        52.000    20203106.820  
 -19449549.370 8                        41.000  
  25287898.961    -2182997.878 3                        36.000    25287896.558  
   -979641.027 5                        15.000  
  23921851.617    -8230561.093 6                        44.000    23921848.641  
  -6210371.674 6                        25.000  
  20491165.482   -24507089.017 7                        51.000    20491162.075  
 -19057520.207 8                        41.000  
 11 05 11  5  3  0.0000000  0 11G11G14G17G19G20G22G23G24G28G31G32    0.000000000
  20623065.349   -24388330.388 7                        52.000    20623061.058  
 -18211612.916 8                        40.000  
  22824105.312   -13424270.245 6                        44.000    22824102.330  
  -9482887.157 7                        28.000  
  23163235.155   -11677270.006 7                        48.000    23163232.064  
  -9059911.787 7                        32.000  
  24739775.122    -3056620.174 5                        40.000    24739773.257  
  -1654004.305 6                        23.000  
  21387992.556   -17998198.186 7                        48.000    21387989.103  
 -13986468.967 8                        37.000  
  25554316.354     -508622.611 3                        37.000    25554314.112  
   1538181.702 5                        16.000  
  24211869.033    -7776329.025 6                        45.000    24211865.410  
  -6018714.471 6                        26.000  
  20203296.561   -26946953.268 7                        52.000    20203294.131  
 -19448783.595 9                        42.000  
  25292448.817    -2159085.758 4                        38.000    25292446.624  
   -961008.164 5                        16.000  
  23916767.164    -8257279.492 6                        44.000    23916764.580  
  -6231191.153 6                        26.000  
  20490294.573   -24511665.043 7                        51.000    20490291.349  
 -19061085.948 8                        41.000  
 11 05 11  5  3 10.0000000  0 11G11G14G17G19G20G22G23G24G28G31G32    0.000000000
  20626045.930   -24372669.200 7                        51.000    20626041.252  
 -18199409.400 8                        40.000  
  22829032.954   -13398376.885 6                        43.000    22829029.316  
  -9462710.525 7                        29.000  
  23158995.671   -11699550.450 7                        48.000    23158991.980  
  -9077273.172 7                        32.000  
  24746963.010    -3018851.653 5                        40.000    24746960.482  
  -1624574.345 6                        22.000  
  21383466.156   -18021984.401 6                        47.000    21383462.122  
 -14005003.675 8                        37.000  
  25560644.124     -475367.665 3                        37.000    25560641.898  
   1564094.684 5                        18.000  
  24204716.132    -7813919.834 6                        44.000    24204712.659  
  -6048005.977 6                        26.000  
  20203493.491   -26945919.090 7                        52.000    20203490.926  
 -19447977.748 8                        41.000  
  25297004.733    -2135147.606 4                        38.000    25297002.246  
   -942355.061 5                        16.000  
  23911689.574    -8283963.440 6                        45.000    23911686.762  
  -6251983.821 6                        26.000  
  20489432.356   -24516195.790 7                        50.000    20489429.619  
 -19064616.399 8                        41.000  
 11 05 11  5  3 20.0000000  0 11G11G14G17G19G20G22G23G24G28G31G32    0.000000000
  20629036.167   -24356953.625 7                        51.000    20629032.303  
 -18187163.511 8                        39.000  
  22833967.851   -13372441.143 6                        43.000    22833964.664  
  -9442500.868 7                        29.000  
  23154765.565   -11721779.477 7                        48.000    23154762.187  
  -9094594.485 7                        32.000  
  24754149.886    -2981079.879 5                        41.000    24754147.757  
  -1595141.835 6                        21.000  
  21378946.188   -18045735.835 6                        46.000    21378942.632  
 -14023511.282 8                        37.000  
  25566973.380     -442112.946 3                        37.000    25566970.450  
   1590007.406 5                        16.000  
  24197564.827    -7851500.144 6                        44.000    24197560.952  
  -6077289.320 6                        25.000  
  20203700.023   -26944833.714 8                        53.000    20203697.201  
 -19447132.004 8                        41.000  
  25301565.137    -2111183.755 3                        37.000    25301562.401  
   -923681.940 5                        16.000  
  23906617.974    -8310613.104 6                        44.000    23906615.999  
  -6272749.776 6                        26.000  
  20488578.663   -24520681.458 7                        50.000    20488575.441  
 -19068111.719 8                        40.000  
 11 05 11  5  3 30.0000000  0 11G11G14G17G19G20G22G23G24G28G31G32    0.000000000
  20632037.038   -24341183.576 7                        52.000    20632032.931  
 -18174875.170 8                        40.000  
  22838911.968   -13346463.076 6                        44.000    22838908.445  
  -9422258.227 7                        29.000  
  23150545.356   -11743956.921 7                        48.000    23150541.911  
  -9111875.611 7                        33.000  
  24761338.251    -2943304.784 5                        41.000    24761335.874  
  -1565706.740 6                        22.000  
  21374433.115   -18069452.386 6                        47.000    21374429.416  
 -14041991.710 8                        37.000  
  25573300.712     -408858.472 2                        34.000    25573298.886  
   1615919.933 5                        15.000  
  24190415.533    -7889069.941 6                        44.000    24190412.117  
  -6106564.469 6                        26.000  
  20203916.361   -26943697.095 7                        52.000    20203913.576  
 -19446246.336 8                        41.000  
  25306129.901    -2087194.193 4                        38.000    25306128.035  
   -904988.762 5                        15.000  
  23901553.457    -8337228.228 6                        44.000    23901551.518  
  -6293488.791 7                        27.000  
  20487733.536   -24525122.002 7                        50.000    20487730.965  
 -19071571.879 8                        41.000  
 11 05 11  5  3 40.0000000  0 11G11G14G17G19G20G22G23G24G28G31G32    0.000000000
  20635048.524   -24325358.993 7                        51.000    20635044.397  
 -18162544.333 8                        40.000  
  22843863.547   -13320442.638 6                        43.000    22843859.892  
  -9401982.583 7                        29.000  
  23146335.037   -11766082.608 7                        49.000    23146330.834  
  -9129116.401 7                        32.000  
  24768528.529    -2905526.361 5                        41.000    24768525.636  
  -1536269.051 6                        23.000  
  21369926.751   -18093133.753 6                        47.000    21369922.975  
 -14060444.721 8                        37.000  
  25579629.168     -375604.124 3                        37.000    25579628.025  
   1641832.475 5                        16.000  
  24183267.667    -7926628.765 6                        44.000    24183264.584  
  -6135831.079 6                        26.000  
  20204142.344   -26942509.081 7                        52.000    20204139.550  
 -19445320.609 8                        41.000  
  25310699.594    -2063178.970 4                        38.000    25310697.760  
   -886275.657 5                        14.000  
  23896495.137    -8363808.684 6                        44.000    23896494.195  
  -6314200.794 7                        27.000  
  20486897.165   -24529517.245 7                        50.000    20486894.389  
 -19074996.743 8                        41.000  
 11 05 11  5  3 50.0000000  0 11G11G14G17G19G20G22G23G24G28G31G32    0.000000000
  20638070.101   -24309479.977 7                        51.000    20638066.393  
 -18150171.084 8                        40.000  
  22848822.551   -13294379.967 6                        43.000    22848818.925  
  -9381674.022 7                        28.000  
  23142134.280   -11788156.506 7                        48.000    23142130.936  
  -9146316.846 7                        32.000  
  24775716.868    -2867744.719 5                        40.000    24775715.635  
  -1506828.876 6                        22.000  
  21365427.085   -18116780.015 6                        47.000    21365423.401  
 -14078870.370 8                        38.000  
  25585956.984     -342349.978 3                        37.000    25585955.761  
   1667744.746 5                        16.000  
  24176123.204    -7964176.614 6                        45.000    24176119.841  
  -6165089.116 6                        26.000  
  20204377.976   -26941269.728 7                        52.000    20204375.141  
 -19444354.888 8                        41.000  
  25315274.753    -2039138.240 4                        38.000    25315273.146  
   -867542.652 5                        14.000  
  23891443.279    -8390354.364 6                        44.000    23891442.259  
  -6334885.705 6                        25.000  
  20486069.255   -24533867.234 7                        51.000    20486066.698  
 -19078386.346 8                        40.000  
 11 05 11  5  4  0.0000000  0 11G11G14G17G19G20G22G23G24G28G31G32    0.000000000
  20641102.266   -24293546.677 7                        51.000    20641098.220  
 -18137755.542 8                        40.000  
  22853790.125   -13268275.191 6                        43.000    22853786.942  
  -9361332.637 7                        28.000  
  23137943.825   -11810178.686 7                        48.000    23137939.894  
  -9163476.985 7                        32.000  
  24782907.196    -2829960.145 5                        41.000    24782905.334  
  -1477386.392 6                        22.000  
  21360934.011   -18140391.279 6                        46.000    21360930.382  
 -14097268.754 8                        38.000  
  25592284.194     -309096.249 3                        37.000    25592283.267  
   1693656.716 5                        16.000  
  24168979.761    -8001713.534 6                        44.000    24168976.364  
  -6194338.661 6                        25.000  
  20204623.899   -26939979.126 8                        53.000    20204620.816  
 -19443349.230 9                        42.000  
  25319854.289    -2015072.234 3                        37.000    25319852.794  
   -848789.870 5                        15.000  
  23886398.939    -8416865.306 6                        44.000    23886396.638  
  -6355543.534 6                        26.000  
  20485250.339   -24538172.178 7                        49.000    20485247.196  
 -19081740.856 8                        41.000  
 11 05 11  5  4 10.0000000  0 11G11G14G17G19G20G22G23G24G28G31G32    0.000000000
  20644144.480   -24277558.607 7                        51.000    20644140.581  
 -18125297.311 8                        40.000  
  22858765.873   -13242128.040 5                        42.000    22858762.638  
  -9340958.255 7                        29.000  
  23133763.051   -11832148.523 7                        48.000    23133758.729  
  -9180596.332 7                        32.000  
  24790098.497    -2792172.146 5                        40.000    24790096.001  
  -1447941.243 6                        23.000  
  21356447.819   -18163966.964 7                        48.000    21356444.101  
 -14115639.418 8                        38.000  
  25598612.841     -275842.421 2                        34.000    25598611.721  
   1719568.761 5                        16.000  
  24161838.972    -8039238.965 6                        44.000    24161834.880  
  -6223579.256 6                        25.000  
  20204879.122   -26938636.744 7                        52.000    20204876.364  
 -19442303.215 8                        41.000  
  25324438.649    -1990980.595 3                        37.000    25324438.080  
   -830017.286 5                        15.000  
  23881360.557    -8443340.842 6                        45.000    23881359.513  
  -6376173.800 6                        26.000  
  20484440.024   -24542431.579 7                        50.000    20484436.282  
 -19085059.865 8                        41.000  
 11 05 11  5  4 20.0000000  0 11G11G14G17G19G20G22G23G24G28G31G32    0.000000000
  20647197.628   -24261516.474 7                        51.000    20647193.009  
 -18112796.969 8                        40.000  
  22863749.450   -13215939.188 6                        43.000    22863746.366  
  -9320551.379 7                        29.000  
  23129592.192   -11854066.574 7                        48.000    23129588.043  
  -9197675.335 7                        32.000  
  24797289.748    -2754381.468 5                        41.000    24797287.527  
  -1418494.013 6                        22.000  
  21351967.911   -18187507.722 7                        48.000    21351964.339  
 -14133982.864 8                        38.000  
  25604941.594     -242589.064 2                        34.000    25604939.285  
   1745480.466 5                        15.000  
  24154699.909    -8076753.481 6                        45.000    24154696.829  
  -6252811.333 6                        26.000  
  20205144.587   -26937243.168 7                        52.000    20205141.800  
 -19441217.318 8                        41.000  
  25329027.743    -1966863.915 3                        37.000    25329026.557  
   -811225.035 5                        14.000  
  23876329.010    -8469781.506 6                        44.000    23876328.120  
  -6396776.875 7                        27.000  
  20483638.109   -24546646.139 7                        50.000    20483634.872  
 -19088343.930 8                        41.000  
 11 05 11  5  4 30.0000000  0 11G11G14G17G19G20G22G23G24G28G31G32    0.000000000
  20650260.500   -24245420.263 7                        51.000    20650256.428  
 -18100254.479 8                        40.000  
  22868740.851   -13189708.678 6                        43.000    22868738.119  
  -9300112.030 7                        28.000  
  23125431.089   -11875932.731 7                        48.000    23125427.169  
  -9214713.894 7                        32.000  
  24804481.993    -2716588.183 5                        41.000    24804479.722  
  -1389044.753 6                        23.000  
  21347495.111   -18211013.474 7                        48.000    21347491.637  
 -14152299.034 8                        38.000  
  25611268.757     -209336.201 3                        37.000    25611266.797  
   1771391.732 5                        17.000  
  24147563.137    -8114257.006 6                        45.000    24147559.962  
  -6282034.836 7                        27.000  
  20205419.720   -26935798.395 7                        52.000    20205416.430  
 -19440091.520 8                        41.000  
  25333622.647    -1942722.334 3                        36.000                  
                                                
  23871304.540    -8496187.108 6                        45.000    23871303.580  
  -6417352.627 7                        27.000  
  20482844.365   -24550815.754 7                        51.000    20482841.043  
 -19091592.984 8                        41.000  
 11 05 11  5  4 40.0000000  0 11G11G14G17G19G20G22G23G24G28G31G32    0.000000000
  20653333.754   -24229269.476 7                        51.000    20653329.577  
 -18087669.463 8                        40.000  
  22873740.312   -13163435.942 6                        44.000    22873736.858  
  -9279639.793 7                        29.000  
  23121280.008   -11897746.322 7                        48.000    23121276.227  
  -9231711.497 7                        32.000  
  24811674.206    -2678791.757 5                        40.000    24811672.128  
  -1359593.053 6                        22.000  
  21343028.789   -18234483.582 6                        47.000    21343025.112  
 -14170587.420 8                        38.000  
  25617597.005     -176083.432 3                        37.000    25617595.007  
   1797302.970 5                        17.000  
  24140429.102    -8151748.918 6                        45.000    24140425.374  
  -6311249.282 7                        27.000  
  20205704.196   -26934301.829 8                        53.000    20205701.369  
 -19438925.372 8                        41.000  
  25338221.343    -1918555.360 3                        36.000                  
                                                
  23866286.221    -8522557.031 6                        44.000    23866285.359  
  -6437900.596 7                        27.000  
  20482059.417   -24554939.874 7                        51.000    20482056.082  
 -19094806.583 8                        41.000  
 11 05 11  5  4 50.0000000  0 11G11G14G17G19G20G22G23G24G28G31G32    0.000000000
  20656417.232   -24213064.682 7                        51.000    20656413.541  
 -18075042.364 8                        40.000  
  22878747.880   -13137121.700 6                        45.000    22878744.893  
  -9259135.203 7                        28.000  
  23117138.541   -11919507.853 7                        48.000    23117134.982  
  -9248668.523 7                        32.000  
  24818867.367    -2640992.876 5                        40.000    24818864.738  
  -1330139.442 6                        23.000  
  21338569.263   -18257918.570 7                        48.000    21338565.700  
 -14188848.447 8                        37.000  
  25623925.461     -142831.286 4                        39.000    25623922.179  
   1823213.739 5                        18.000  
  24133297.348    -8189229.582 6                        45.000    24133293.022  
  -6340454.997 6                        26.000  
  20205998.884   -26932754.004 7                        52.000    20205995.846  
 -19437719.283 8                        41.000  
  25342823.901    -1894363.672 3                        36.000                  
                                                
  23861274.812    -8548891.683 6                        44.000    23861273.758  
  -6458421.064 7                        28.000  
  20481283.428   -24559019.090 7                        51.000    20481280.141  
 -19097985.189 8                        41.000  
 11 05 11  5  5  0.0000000  0 11G11G14G17G19G20G22G23G24G28G31G32    0.000000000
  20659511.908   -24196805.595 7                        52.000    20659507.641  
 -18062372.952 8                        40.000  
  22883763.410   -13110765.714 6                        44.000    22883759.795  
  -9238598.084 7                        28.000  
  23113007.293   -11941216.918 7                        48.000    23113003.966  
  -9265584.674 7                        32.000  
  24826060.454    -2603191.284 5                        41.000    24826058.223  
  -1300683.696 6                        22.000  
  21334116.229   -18281318.140 7                        48.000    21334112.574  
 -14207081.869 8                        38.000  
  25630252.065     -109579.408 3                        36.000    25630250.043  
   1849124.299 5                        18.000  
  24126166.644    -8226698.691 6                        45.000    24126162.817  
  -6369651.694 6                        25.000  
  20206303.009   -26931154.646 7                        52.000    20206300.383  
 -19436473.031 8                        41.000  
  25347432.802    -1870147.148 2                        35.000                  
                                                
  23856269.683    -8575190.533 6                        44.000    23856269.201  
  -6478913.647 7                        27.000  
  20480515.388   -24563053.134 7                        51.000    20480512.808  
 -19101128.598 8                        41.000  
 11 05 11  5  5 10.0000000  0 11G11G14G17G19G20G22G23G24G28G31G32    0.000000000
  20662616.025   -24180492.577 7                        51.000    20662612.054  
 -18049661.528 8                        40.000  
  22888786.989   -13084368.408 6                        44.000    22888783.416  
  -9218028.762 7                        28.000  
  23108886.441   -11962873.721 6                        47.000    23108882.830  
  -9282460.096 7                        32.000  
  24833254.072    -2565387.350 5                        40.000    24833252.391  
  -1271226.149 6                        22.000  
  21329670.711   -18304682.502 7                        48.000    21329666.497  
 -14225287.855 8                        38.000  
  25636579.414      -76328.315 2                        35.000    25636577.281  
   1875034.168 5                        16.000  
  24119038.391    -8264156.411 6                        44.000    24119034.676  
  -6398839.528 6                        25.000  
  20206617.290   -26929504.018 7                        52.000    20206614.540  
 -19435186.838 8                        41.000  
  25352045.165    -1845906.111 2                        35.000                  
                                                
  23851272.345    -8601454.027 6                        43.000    23851271.356  
  -6499378.668 7                        27.000  
  20479756.836   -24567042.250 7                        51.000    20479753.702  
 -19104236.999 8                        41.000  
 11 05 11  5  5 20.0000000  0 11G11G14G17G19G20G22G23G24G28G31G32    0.000000000
  20665730.520   -24164125.274 7                        51.000    20665726.198  
 -18036907.792 8                        40.000  
  22893817.411   -13057929.461 6                        44.000    22893814.777  
  -9197426.992 7                        29.000  
  23104775.012   -11984477.711 6                        47.000    23104771.802  
  -9299294.374 7                        31.000  
  24840448.473    -2527580.772 4                        39.000    24840446.399  
  -1241766.533 6                        22.000  
  21325231.238   -18328011.281 6                        47.000    21325227.150  
 -14243466.130 8                        38.000  
  25642906.425      -43077.303 1                        33.000                  
                                                
  24111913.135    -8301602.273 6                        44.000    24111908.840  
  -6428018.101 7                        27.000  
  20206941.040   -26927801.699 7                        51.000    20206938.384  
 -19433860.353 8                        41.000  
  25356662.712    -1821640.238 3                        36.000                  
                                                
  23846281.461    -8627681.556 6                        44.000    23846280.376  
  -6519815.682 7                        27.000  
  20479006.300   -24570986.109 7                        50.000    20479003.341  
 -19107310.139 8                        41.000  
 11 05 11  5  5 30.0000000  0 11G11G14G17G19G20G22G23G24G28G31G32    0.000000000
  20668855.536   -24147704.018 7                        52.000    20668851.135  
 -18024112.016 8                        41.000  
  22898856.808   -13031449.303 6                        43.000    22898853.718  
  -9176793.131 7                        28.000  
  23100673.701   -12006029.264 6                        46.000    23100670.663  
  -9316087.781 7                        31.000  
  24847643.198    -2489771.952 4                        39.000    24847641.500  
  -1212305.158 6                        22.000  
  21320798.871   -18351304.671 7                        49.000    21320795.105  
 -14261616.819 8                        38.000  
  25649234.688       -9826.913 4                        38.000                  
                                                
  24104789.427    -8339036.529 6                        45.000    24104786.037  
  -6457187.650 6                        26.000  
  20207274.862   -26926048.013 7                        52.000    20207272.199  
 -19432493.847 8                        41.000  
  25361285.208    -1797349.912 2                        34.000                  
                                                
  23841297.285    -8653873.284 6                        43.000    23841296.530  
  -6540224.789 7                        27.000  
  20478264.319   -24574884.964 7                        52.000    20478260.984  
 -19110348.205 8                        41.000  
 11 05 11  5  5 40.0000000  0 11G11G14G17G19G20G22G23G24G28G31G32    0.000000000
  20671990.742   -24131228.757 7                        51.000    20671986.768  
 -18011274.158 8                        41.000  
  22903903.999   -13004927.746 6                        44.000    22903900.500  
  -9156126.985 7                        28.000  
  23096582.295   -12027527.999 6                        46.000    23096579.800  
  -9332840.042 7                        32.000  
  24854838.748    -2451960.731 5                        40.000    24854836.566  
  -1182841.912 6                        22.000  
  21316372.605   -18374562.403 7                        49.000    21316369.311  
 -14279739.723 8                        38.000  
  25655561.682       23422.979 4                        39.000    25655556.247  
   1944664.33716                        21.000  
  24097668.081    -8376458.799 6                        45.000    24097664.402  
  -6486347.816 6                        26.000  
  20207618.329   -26924242.583 7                        52.000    20207615.790  
 -19431087.025 8                        41.000  
  25365912.938    -1773035.127 2                        35.000                  
                                                
  23836320.232    -8680028.828 6                        44.000    23836318.824  
  -6560605.700 7                        29.000  
  20477531.136   -24578738.595 7                        51.000    20477527.602  
 -19113351.036 8                        41.000  
 11 05 11  5  5 50.0000000  0 11G11G14G17G19G20G22G23G24G28G31G32    0.000000000
  20675135.980   -24114699.698 7                        51.000    20675131.717  
 -17998394.385 8                        40.000  
  22908958.110   -12978365.226 6                        43.000    22908955.046  
  -9135428.939 7                        28.000  
  23092501.516   -12048974.140 6                        46.000    23092498.841  
  -9349551.310 7                        31.000  
  24862034.918    -2414147.502 5                        40.000    24862032.529  
  -1153377.133 6                        23.000  
  21311953.610   -18397784.797 7                        48.000    21311949.589  
 -14297835.097 8                        39.000  
  25661889.783       56672.068 3                        37.000    25661884.000  
   1970572.755 6                        19.000  
  24090549.012    -8413869.345 6                        44.000    24090545.497  
  -6515498.898 6                        26.000  
  20207971.564   -26922385.781 7                        52.000    20207969.101  
 -19429640.170 8                        41.000  
  25370544.010    -1748696.197 2                        34.000                  
                                                
  23831348.898    -8706148.460 6                        44.000    23831348.615  
  -6580958.633 7                        27.000  
  20476806.244   -24582547.377 7                        50.000    20476802.941  
 -19116318.915 8                        41.000  
 11 05 11  5  6  0.0000000  0 11G11G14G17G19G20G22G23G24G28G31G32    0.000000000
  20678291.794   -24098116.434 7                        51.000    20678287.693  
 -17985472.369 8                        40.000  
  22914021.188   -12951761.470 6                        44.000    22914017.360  
  -9114698.752 7                        27.000  
  23088430.248   -12070367.215 6                        46.000    23088427.740  
  -9366221.254 7                        31.000  
  24869230.777    -2376332.044 4                        39.000    24869228.687  
  -1123910.600 6                        23.000  
  21307541.568   -18420971.541 7                        49.000    21307537.736  
 -14315902.679 8                        39.000  
  25668216.383       89920.815 3                        36.000    25668212.027  
   1996480.852 5                        18.000  
  24083432.720    -8451267.764 6                        44.000    24083428.694  
  -6544640.500 6                        26.000  
  20208335.001   -26920477.215 7                        51.000    20208332.204  
 -19428152.988 8                        41.000  
  25375180.402    -1724332.854 2                        34.000                  
                                                
  23826386.492    -8732231.672 6                        45.000    23826385.089  
  -6601283.188 7                        28.000  
  20476090.108   -24586310.931 7                        51.000    20476086.388  
 -19119251.561 8                        41.000  
 11 05 11  5  6 10.0000000  0 11G11G14G17G19G20G22G23G24G28G31G32    0.000000000
  20681457.527   -24081479.422 7                        51.000    20681453.130  
 -17972508.477 8                        40.000  
  22919091.600   -12925116.868 6                        44.000    22919088.051  
  -9093936.736 7                        28.000  
  23084369.498   -12091707.563 6                        46.000    23084366.946  
  -9382850.091 7                        31.000  
  24876426.898    -2338514.725 4                        39.000    24876425.371  
  -1094442.608 6                        22.000  
  21303135.592   -18444122.725 7                        49.000    21303132.066  
 -14333942.555 8                        39.000  
  25674543.059      123168.724 2                        35.000    25674539.038  
   2022388.272 5                        17.000  
  24076317.610    -8488654.248 6                        44.000    24076314.468  
  -6573772.814 6                        26.000  
  20208707.534   -26918517.215 7                        52.000    20208705.623  
 -19426625.718 8                        41.000  
  25379820.786    -1699945.491 2                        35.000                  
                                                
  23821429.747    -8758278.624 6                        44.000    23821428.269  
  -6621579.491 7                        27.000  
  20475382.198   -24590029.600 7                        50.000    20475378.754  
 -19122149.225 8                        40.000  
 11 05 11  5  6 20.0000000  0 11G11G14G17G19G20G22G23G24G28G31G32    0.000000000
  20684633.964   -24064788.722 7                        52.000    20684629.310  
 -17959502.740 8                        40.000  
  22924168.752   -12898431.476 6                        44.000    22924166.363  
  -9073142.949 7                        28.000  
  23080318.805   -12112994.984 6                        46.000    23080316.689  
  -9399437.684 7                        31.000  
  24883624.043    -2300695.670 4                        39.000    24883621.931  
  -1064973.276 6                        21.000  
  21298737.142   -18467238.353 7                        49.000    21298733.424  
 -14351954.728 8                        39.000  
  25680868.832      156415.622 1                        32.000    25680866.816  
   2048294.950 5                        15.000  
  24069205.840    -8526028.859 6                        45.000    24069202.133  
  -6602895.882 6                        26.000  
  20209090.661   -26916505.783 8                        53.000    20209087.850  
 -19425058.368 8                        41.000  
  25384465.788    -1675534.345 2                        35.000                  
                                                
  23816480.156    -8784289.318 6                        45.000    23816478.664  
  -6641847.539 7                        28.000  
  20474683.287   -24593703.421 7                        50.000    20474680.236  
 -19125011.946 8                        40.000  
 11 05 11  5  6 30.0000000  0 11G11G14G17G19G20G22G23G24G28G31G32    0.000000000
  20687820.210   -24048043.959 7                        51.000    20687816.031  
 -17946454.888 8                        40.000  
  22929255.374   -12871704.980 6                        43.000    22929252.263  
  -9052317.121 7                        28.000  
  23076278.210   -12134229.058 6                        46.000    23076275.879  
  -9415983.729 7                        31.000  
  24890820.591    -2262874.576 5                        40.000    24890818.988  
  -1035502.327 6                        21.000  
  21294345.213   -18490318.001 7                        50.000    21294341.444  
 -14369938.871 8                        39.000  
  25687196.602      189662.200 1                        32.000    25687193.843  
   2074201.318 5                        16.000  
  24062095.862    -8563391.037 6                        43.000    24062092.200  
  -6632009.256 6                        26.000  
  20209483.260   -26914442.524 7                        52.000    20209480.456  
 -19423450.638 8                        41.000  
  25389115.543    -1651099.109 1                        33.000                  
                                                
  23811537.152    -8810263.165 6                        44.000    23811535.583  
  -6662086.870 7                        28.000  
  20473992.752   -24597331.999 7                        50.000    20473989.473  
 -19127839.412 8                        40.000  
 11 05 11  5  6 40.0000000  0 11G11G14G17G19G20G22G23G24G28G31G32    0.000000000
  20691016.678   -24031245.643 7                        51.000    20691012.389  
 -17933365.307 8                        40.000  
  22934348.726   -12844938.062 6                        43.000    22934345.600  
  -9031459.790 7                        28.000  
  23072247.408   -12155410.137 6                        46.000    23072245.300  
  -9432488.474 7                        31.000  
  24898018.670    -2225051.941 4                        39.000    24898016.543  
  -1006030.228 6                        22.000  
  21289960.006   -18513362.189 7                        50.000    21289956.477  
 -14387895.379 8                        39.000  
  25693521.833      222907.886 1                        33.000                  
                                                
  24054988.015    -8600741.248 6                        44.000    24054984.938  
  -6661113.303 6                        25.000  
  20209885.704   -26912327.894 8                        53.000    20209882.860  
 -19421802.878 8                        41.000  
  25393770.515    -1626640.386 1                        33.000                  
                                                
  23806601.552    -8836200.551 6                        45.000    23806599.904  
  -6682297.792 7                        28.000  
  20473310.662   -24600915.833 7                        50.000    20473307.506  
 -19130632.007 8                        40.000  
 11 05 11  5  6 50.0000000  0 11G11G14G17G19G20G22G23G24G28G31G32    0.000000000
  20694223.634   -24014393.310 7                        51.000    20694219.750  
 -17920233.630 8                        39.000  
  22939450.256   -12818130.305 6                        43.000    22939447.030  
  -9010570.651 7                        29.000  
  23068226.796   -12176537.719 6                        47.000    23068224.854  
  -9448951.536 7                        32.000  
  24905215.773    -2187227.392 5                        40.000    24905214.305  
   -976556.580 6                        22.000  
  21285581.772   -18536370.339 7                        50.000    21285578.384  
 -14405823.804 8                        39.000  
  25699848.873      256153.421 2                        35.000                  
                                                
  24047882.677    -8638078.772 6                        45.000    24047879.317  
  -6690207.459 6                        25.000  
  20210297.684   -26910161.365 8                        53.000    20210294.983  
 -19420114.685 8                        41.000  
  25398430.308    -1602157.607 2                        34.000                  
                                                
  23801672.372    -8862100.947 6                        45.000    23801670.888  
  -6702479.891 7                        27.000  
  20472637.124   -24604454.385 7                        50.000    20472634.222  
 -19133389.322 8                        39.000  
 11 05 11  5  7  0.0000000  0 11G11G14G17G19G20G22G23G24G28G31G32    0.000000000
  20697440.522   -23997487.520 7                        51.000    20697436.693  
 -17907060.303 8                        40.000  
  22944559.657   -12791282.259 6                        44.000    22944556.097  
  -8989650.114 7                        29.000  
  23064216.661   -12197612.242 6                        46.000    23064214.716  
  -9465373.250 7                        31.000  
  24912414.119    -2149401.593 4                        39.000    24912412.247  
   -947082.016 6                        22.000  
  21281210.209   -18559342.934 7                        49.000    21281206.635  
 -14423724.513 8                        39.000  
  25706175.675      289397.803 5                        40.000    25706170.946  
   2142089.27516                        22.000  
  24040780.560    -8675404.063 6                        45.000    24040777.405  
  -6719292.073 6                        25.000  
  20210720.211   -26907943.489 7                        52.000    20210717.053  
 -19418386.477 8                        41.000  
  25403092.731    -1577651.597 1                        33.000                  
                                                
  23796750.665    -8887964.697 6                        45.000    23796748.916  
  -6722633.440 7                        27.000  
  20471972.015   -24607948.253 7                        50.000    20471969.166  
 -19136111.825 8                        40.000  
 11 05 11  5  7 10.0000000  0 11G11G14G17G19G20G22G23G24G28G31G32    0.000000000
  20700667.575   -23980528.033 7                        50.000    20700663.607  
 -17893845.128 8                        40.000  
  22949676.246   -12764393.648 6                        44.000    22949672.889  
  -8968697.964 7                        29.000  
  23060215.926   -12218633.232 6                        46.000    23060214.256  
  -9481753.245 7                        32.000  
  24919612.391    -2111574.271 4                        39.000    24919610.490  
   -917606.225 6                        23.000  
  21276845.407   -18582279.582 7                        49.000    21276841.865  
 -14441597.213 8                        38.000  
  25712501.002      322641.522 2                        34.000    25712497.042  
   2167993.462 6                        19.000  
  24033680.006    -8712716.716 6                        44.000    24033676.402  
  -6748366.872 6                        24.000  
  20211152.019   -26905673.810 7                        52.000    20211149.048  
 -19416617.896 8                        41.000  
  25407760.286    -1553122.030 1                        32.000                  
                                                
  23791836.314    -8913791.273 6                        44.000    23791834.439  
  -6742758.019 7                        28.000  
  20471315.869   -24611397.139 7                        49.000    20471313.027  
 -19138799.269 8                        40.000  
 11 05 11  5  7 20.0000000  0 11G11G14G17G19G20G22G23G24G28G31G32    0.000000000
  20703905.162   -23963514.993 7                        50.000    20703900.938  
 -17880588.220 8                        40.000  
  22954800.247   -12737464.737 6                        44.000    22954797.227  
  -8947714.417 7                        28.000  
  23056226.060   -12239600.789 6                        45.000    23056224.307  
  -9498091.602 7                        31.000  
  24926811.407    -2073745.634 4                        39.000    24926809.606  
   -888129.424 6                        23.000  
  21272487.106   -18605180.445 7                        49.000    21272484.093  
 -14459442.048 8                        38.000  
  25718827.672      355884.440 3                        37.000    25718823.763  
   2193896.960 5                        18.000  
  24026582.058    -8750016.807 6                        44.000    24026578.019  
  -6777431.889 6                        24.000  
  20211593.864   -26903352.534 8                        53.000    20211590.798  
 -19414809.114 8                        41.000  
  25412432.049    -1528569.202 1                        33.000                  
                                                
  23786928.711    -8939580.757 6                        44.000    23786926.421  
  -6762853.714 6                        26.000  
  20470668.204   -24614801.155 7                        50.000    20470665.517  
 -19141451.746 8                        40.000  
 11 05 11  5  7 30.0000000  0 11G11G14G17G19G20G22G23G24G28G31G32    0.000000000
  20707153.132   -23946448.543 7                        50.000    20707149.226  
 -17867289.710 8                        40.000  
  22959932.429   -12710495.797 6                        43.000    22959929.219  
  -8926699.663 7                        28.000  
  23052246.145   -12260514.930 6                        46.000    23052244.801  
  -9514388.337 7                        32.000  
  24934010.320    -2035915.905 5                        40.000    24934007.617  
   -858651.787 6                        22.000  
  21268136.451   -18628045.576 7                        49.000    21268132.513  
 -14477259.023 8                        39.000  
  25725152.789      389126.560 5                        40.000                  
                                                
  24019486.135    -8787304.329 6                        44.000    24019482.364  
  -6806487.073 6                        25.000  
  20212045.406   -26900979.752 7                        52.000    20212042.322  
 -19412960.199 9                        42.000  
  25417109.142    -1503993.255 1                        33.000                  
                                                
  23782028.171    -8965333.137 6                        44.000    23782026.082  
  -6782920.474 7                        27.000  
  20470029.016   -24618160.360 7                        49.000    20470025.951  
 -19144069.300 8                        41.000  
 11 05 11  5  7 40.0000000  0 11G11G14G17G19G20G22G23G24G28G31G32    0.000000000
  20710411.026   -23929328.420 7                        52.000    20710407.054  
 -17853949.366 8                        40.000  
  22965072.109   -12683486.445 6                        43.000    22965068.810  
  -8905653.433 7                        28.000  
  23048276.659   -12281375.213 6                        45.000    23048275.038  
  -9530643.108 7                        31.000  
  24941209.280    -1998084.833 5                        40.000    24941206.785  
   -829173.076 6                        23.000  
  21263792.266   -18650874.568 7                        49.000    21263788.826  
 -14495047.843 8                        39.000  
  25731479.115      422368.002 4                        38.000    25731475.354  
   2240848.29316                        22.000  
  24012393.033    -8824578.938 6                        44.000    24012389.785  
  -6835532.200 6                        24.000  
  20212506.543   -26898555.117 7                        52.000    20212503.503  
 -19411070.875 9                        42.000  
  25421790.250    -1479393.966 1                        32.000                  
                                                
  23777135.172    -8991047.964 6                        44.000    23777132.699  
  -6802957.975 7                        28.000  
  20469398.304   -24621474.490 7                        50.000    20469395.187  
 -19146651.735 8                        41.000  
 11 05 11  5  7 50.0000000  0 10G11G14G17G19G20G23G24G28G31G32       0.000000000
  20713678.567   -23912156.983 7                        51.000    20713674.416  
 -17840569.042 8                        40.000  
  22970219.073   -12656439.164 6                        44.000    22970216.369  
  -8884577.641 7                        28.000  
  23044317.185   -12302183.870 6                        46.000    23044315.400  
  -9546857.649 7                        31.000  
  24948407.841    -1960254.713 5                        40.000    24948405.749  
   -799695.124 6                        23.000  
  21259454.253   -18673669.687 7                        50.000    21259451.148  
 -14512810.265 8                        39.000  
  24005302.222    -8861842.761 6                        44.000    24005298.438  
  -6864568.964 6                        26.000  
  20212977.713   -26896080.917 7                        52.000    20212974.522  
 -19409142.935 9                        42.000  
  25426476.569    -1454773.749 1                        31.000                  
                                                
  23772248.298    -9016727.574 6                        44.000    23772246.236  
  -6822968.026 7                        27.000  
  20468775.557   -24624745.784 7                        50.000    20468772.985  
 -19149200.795 8                        41.000  
 11 05 11  5  8  0.0000000  0 11G11G14G17G19G20G22G23G24G28G31G32    0.000000000
  20716957.126   -23894928.283 7                        51.000    20716953.326  
 -17827144.093 8                        40.000  
  22975374.563   -12629347.977 6                        44.000    22975371.482  
  -8863467.647 7                        29.000  
  23040368.323   -12322934.803 6                        46.000    23040366.478  
  -9563027.195 7                        31.000  
  24955607.357    -1922419.638 4                        39.000    24955605.582  
   -770213.316 6                        23.000  
  21255123.910   -18696424.972 7                        49.000    21255120.707  
 -14530541.660 8                        38.000  
  25744129.909     -586664.43715                        41.000    25744127.513  
 -43135712.58416                        20.000  
  23998213.762    -8899089.875 6                        44.000    23998210.357  
  -6893592.681 6                        25.000  
  20213458.941   -26893551.127 7                        52.000    20213456.135  
 -19407171.670 9                        42.000  
  25431165.548    -1430126.796 1                        30.000                  
                                                
  23767369.354    -9042365.737 6                        44.000    23767367.507  
  -6842945.784 7                        28.000  
  20468162.588   -24627968.414 7                        50.000    20468159.863  
 -19151711.937 8                        40.000  
 11 05 11  5  8 10.0000000  0 11G11G14G17G19G20G22G23G24G28G31G32    0.000000000
  20720246.499   -23877643.182 7                        52.000    20720242.406  
 -17813675.192 8                        41.000  
  22980537.775   -12602213.862 6                        44.000    22980535.156  
  -8842324.184 7                        29.000  
  23036430.742   -12343628.769 6                        46.000    23036428.409  
  -9579152.370 7                        31.000  
  24962808.940    -1884580.605 4                        38.000    24962806.270  
   -740728.392 6                        22.000  
  21250801.370   -18719141.123 7                        49.000    21250798.508  
 -14548242.548 8                        39.000  
  25750455.247     -553420.974 3                        37.000    25750453.363  
 -43109808.544 6                        20.000  
  23991129.241    -8936320.996 6                        45.000    23991125.837  
  -6922603.899 6                        25.000  
  20213950.677   -26890966.549 7                        52.000    20213947.899  
 -19405157.715 9                        42.000  
  25435861.703    -1405453.733 1                        31.000                  
                                                
  23762498.753    -9067963.161 6                        45.000    23762496.117  
  -6862891.813 7                        28.000  
  20467558.589   -24631143.144 7                        50.000    20467555.715  
 -19154185.748 8                        40.000  
 11 05 11  5  8 20.0000000  0 10G11G14G17G19G20G23G24G28G31G32       0.000000000
  20723544.702   -23860312.893 7                        51.000    20723540.129  
 -17800171.090 8                        40.000  
  22985707.208   -12575048.159 6                        44.000    22985704.535  
  -8821156.119 7                        28.000  
  23032501.543   -12364276.975 6                        46.000    23032499.495  
  -9595241.876 7                        32.000  
  24970007.645    -1846748.956 4                        39.000    24970005.540  
   -711249.263 6                        22.000  
  21246483.732   -18741829.355 7                        49.000    21246480.442  
 -14565921.677 8                        38.000  
  23984045.193    -8973547.122 6                        45.000    23984041.529  
  -6951611.279 6                        25.000  
  20214451.066   -26888338.485 8                        53.000    20214448.397  
 -19403109.884 9                        42.000  
  25440559.068   -31313746.06511                        29.000                  
                                                
  23757633.065    -9093530.926 6                        45.000    23757631.156  
  -6882814.708 7                        28.000  
  20466961.412   -24634281.216 7                        50.000    20466958.148  
 -19156630.996 8                        40.000  
 11 05 11  5  8 30.0000000  0 10G11G14G17G19G20G23G24G28G31G32       0.000000000
  20726853.089   -23842926.510 7                        51.000    20726848.655  
 -17786623.267 8                        40.000  
  22990884.870   -12547839.918 6                        44.000    22990882.107  
  -8799954.906 7                        28.000  
  23028583.174   -12384868.339 6                        46.000    23028581.169  
  -9611287.098 7                        32.000  
  24977207.549    -1808913.785 4                        39.000    24977205.305  
   -681767.377 6                        23.000  
  21242173.914   -18764478.622 7                        48.000    21242170.349  
 -14583570.444 8                        38.000  
  23976964.100    -9010757.342 6                        45.000    23976960.686  
  -6980606.262 7                        27.000  
  20214961.127   -26885655.872 8                        53.000    20214958.395  
 -19401019.538 8                        41.000  
  25445261.040   -31289033.13311                        29.000                  
                                                
  23752775.741    -9119057.947 6                        45.000    23752773.104  
  -6902705.873 7                        28.000  
  20466373.112   -24637371.655 7                        50.000    20466370.203  
 -19159039.131 8                        41.000  
 11 05 11  5  8 40.0000000  0  9G11G14G17G19G20G23G24G31G32          0.000000000
  20730171.755   -23825487.082 7                        51.000    20730167.278  
 -17773034.115 8                        40.000  
  22996069.948   -12520592.245 6                        44.000    22996067.038  
  -8778722.966 7                        29.000  
  23024675.163   -12405405.662 6                        47.000    23024672.854  
  -9627290.206 7                        32.000  
  24984406.932    -1771078.130 4                        39.000    24984405.519  
   -652285.104 6                        23.000  
  21237870.643   -18787091.996 7                        50.000    21237867.366  
 -14601191.257 8                        38.000  
  23969886.338    -9047954.565 6                        45.000    23969882.309  
  -7009591.073 6                        26.000  
  20215481.682   -26882921.682 8                        53.000    20215478.865  
 -19398889.004 8                        41.000  
  23747924.720    -9144547.180 6                        45.000    23747922.443  
  -6922567.596 7                        28.000  
  20465793.822   -24640417.444 7                        50.000    20465790.671  
 -19161412.480 8                        40.000  
 11 05 11  5  8 50.0000000  0  9G11G14G17G19G20G23G24G31G32          0.000000000
  20733500.383   -23807993.999 7                        51.000    20733496.251  
 -17759403.153 8                        41.000  
  23001262.198   -12493304.686 6                        44.000    23001260.028  
  -8757459.955 7                        27.000  
  23020777.447   -12425888.434 6                        47.000    23020774.863  
  -9643250.809 7                        32.000  
  24991607.859    -1733241.469 5                        40.000    24991605.982  
   -622802.044 6                        22.000  
  21233574.776   -18809668.723 7                        50.000    21233570.837  
 -14618783.505 8                        38.000  
  23962810.430    -9085138.116 6                        45.000    23962806.122  
  -7038565.272 6                        26.000  
  20216011.459   -26880135.348 7                        52.000    20216008.976  
 -19396717.835 8                        41.000  
  23743081.457    -9169997.929 6                        44.000    23743079.107  
  -6942399.306 7                        28.000  
  20465222.845   -24643418.085 7                        50.000    20465219.612  
 -19163750.640 8                        40.000  
 11 05 11  5  9  0.0000000  0  9G11G14G17G19G20G23G24G31G32          0.000000000
  20736839.053   -23790448.165 7                        51.000    20736835.134  
 -17745731.090 8                        41.000  
  23006462.806   -12465978.115 6                        44.000    23006459.787  
  -8736166.534 7                        28.000  
  23016890.485   -12446317.389 7                        48.000    23016887.361  
  -9659169.467 7                        32.000  
  24998807.565    -1695404.720 4                        39.000    24998805.704  
   -593318.935 6                        22.000  
  21229285.427   -18832209.675 7                        50.000    21229281.526  
 -14636347.881 8                        38.000  
  23955736.674    -9122308.716 6                        45.000    23955733.616  
  -7067529.352 6                        26.000  
  20216551.826   -26877297.661 7                        52.000    20216549.119  
 -19394506.657 8                        41.000  
  23738245.436    -9195410.829 6                        45.000    23738243.374  
  -6962201.537 7                        29.000  
  20464659.923   -24646374.374 7                        51.000    20464657.197  
 -19166054.240 8                        41.000  
 11 05 11  5  9 10.0000000  0  9G11G14G17G19G20G23G24G31G32          0.000000000
  20740188.178   -23772849.102 7                        50.000    20740184.178  
 -17732017.543 8                        41.000  
  23011670.072   -12438612.076 6                        43.000    23011667.587  
  -8714842.370 7                        29.000  
  23013013.224   -12466691.780 7                        49.000    23013010.254  
  -9675045.613 7                        33.000  
  25006007.254    -1657567.407 5                        40.000    25006005.816  
   -563835.363 6                        23.000  
  21225002.794   -18854714.246 7                        50.000    21224998.732  
 -14653883.907 8                        38.000  
  23948666.253    -9159465.608 6                        45.000    23948662.688  
  -7096482.750 7                        27.000  
  20217101.836   -26874408.036 7                        52.000    20217098.982  
 -19392255.008 8                        41.000  
  23733417.356    -9220785.279 6                        44.000    23733414.565  
  -6981973.810 7                        28.000  
  20464106.165   -24649285.735 7                        50.000    20464103.022  
 -19168322.838 8                        41.000  
 11 05 11  5  9 20.0000000  0 10G11G14G17G19G20G23G24G28G31G32       0.000000000
  20743547.287   -23755197.367 7                        50.000    20743542.893  
 -17718262.958 8                        40.000  
  23016885.297   -12411207.131 6                        44.000    23016882.615  
  -8693487.876 7                        27.000  
  23009146.588   -12487012.080 7                        49.000    23009143.176  
  -9690879.616 7                        33.000  
  25013208.468    -1619730.194 5                        40.000    25013206.238  
   -534351.879 6                        22.000  
  21220727.326   -18877182.770 7                        51.000    21220722.855  
 -14671391.853 8                        38.000  
  23941598.333    -9196609.206 6                        45.000    23941594.357  
  -7125425.827 6                        25.000  
  20217661.016   -26871466.940 7                        52.000    20217658.654  
 -19389963.248 8                        41.000  
  25468840.470   -31165133.58111                        28.000                  
                                                
  23728595.360    -9246121.700 6                        44.000    23728592.897  
  -7001716.459 7                        28.000  
  20463560.583   -24652152.658 7                        50.000    20463557.284  
 -19170556.801 8                        41.000  
 11 05 11  5  9 30.0000000  0 10G11G14G17G19G20G23G24G28G31G32       0.000000000
  20746916.144   -23737492.347 7                        50.000    20746911.974  
 -17704466.855 8                        40.000  
  23022107.530   -12383762.772 6                        43.000    23022104.805  
  -8672102.673 7                        28.000  
  23005289.892   -12507277.732 7                        49.000    23005286.393  
  -9706671.032 7                        32.000  
  25020408.132    -1581892.541 5                        40.000    25020406.593  
   -504868.049 6                        23.000  
  21216459.070   -18899614.786 7                        51.000    21216453.889  
 -14688871.352 8                        38.000  
  23934532.249    -9233739.043 6                        45.000    23934529.118  
  -7154358.147 6                        26.000  
  20218230.788   -26868473.861 7                        52.000    20218228.146  
 -19387630.986 8                        41.000  
  25473567.766   -31140287.52311                        29.000                  
                                                
  23723781.732    -9271419.360 6                        44.000    23723778.853  
  -7021428.899 7                        28.000  
  20463023.728   -24654974.597 7                        50.000    20463020.625  
 -19172755.715 8                        41.000  
 11 05 11  5  9 40.0000000  0  9G11G14G17G19G20G23G24G31G32          0.000000000
  20750295.136   -23719734.379 7                        50.000    20750291.407  
 -17690629.485 8                        40.000  
  23027338.075   -12356279.351 6                        43.000    23027335.302  
  -8650687.042 7                        28.000  
  23001444.159   -12527488.796 7                        48.000    23001440.566  
  -9722419.910 7                        32.000  
  25027608.526    -1544054.760 5                        40.000    25027606.536  
   -475384.109 6                        23.000  
  21212197.106   -18922010.480 7                        51.000    21212192.235  
 -14706322.545 8                        38.000  
  23927469.625    -9270855.193 6                        46.000    23927466.442  
  -7183279.790 6                        26.000  
  20218810.196   -26865429.030 7                        52.000    20218807.748  
 -19385258.394 8                        41.000  
  23718974.597    -9296678.455 6                        44.000    23718972.678  
  -7041111.272 7                        28.000  
  20462495.172   -24657751.924 7                        50.000    20462491.780  
 -19174919.870 8                        41.000  
 11 05 11  5  9 50.0000000  0  9G11G14G17G19G20G23G24G31G32          0.000000000
  20753684.296   -23701923.493 7                        51.000    20753680.716  
 -17676750.879 8                        39.000  
  23032574.747   -12328756.962 6                        44.000    23032572.430  
  -8629241.038 7                        28.000  
  22997607.990   -12547645.152 7                        48.000    22997604.768  
  -9738126.154 7                        33.000  
  25034809.005    -1506216.989 5                        40.000    25034807.071  
   -445900.220 6                        24.000  
  21207942.341   -18944369.739 7                        52.000    21207937.388  
 -14723745.344 8                        39.000  
  23920409.273    -9307957.584 6                        45.000    23920405.858  
  -7212190.727 6                        26.000  
  20219399.637   -26862332.342 8                        53.000    20219397.301  
 -19382845.394 9                        42.000  
  23714175.283    -9321898.760 6                        43.000    23714173.277  
  -7060763.435 7                        27.000  
  20461975.201   -24660484.520 7                        51.000    20461971.942  
 -19177049.171 8                        40.000  
 11 05 11  5 10  0.0000000  0  9G11G14G17G19G20G23G24G31G32          0.000000000
  20757083.647   -23684059.886 7                        50.000    20757079.584  
 -17662831.201 8                        39.000  
  23037819.629   -12301195.828 6                        43.000    23037817.322  
  -8607764.850 7                        28.000  
  22993783.041   -12567747.006 7                        48.000    22993779.340  
  -9753789.947 7                        32.000  
  25042009.518    -1468379.474 5                        40.000    25042007.960  
   -416416.498 6                        22.000  
  21203694.238   -18966692.706 7                        52.000    21203689.583  
 -14741139.862 8                        39.000  
  23913351.223    -9345046.259 6                        45.000    23913348.372  
  -7241090.984 7                        28.000  
  20219998.852   -26859184.003 8                        53.000    20219996.118  
 -19380392.143 8                        41.000  
  23709383.433    -9347080.356 6                        44.000    23709380.738  
  -7080385.414 6                        26.000  
  20461463.729   -24663172.648 7                        49.000    20461460.288  
 -19179143.819 8                        40.000  
 11 05 11  5 10 10.0000000  0  9G11G14G17G19G20G23G24G31G32          0.000000000
  20760492.985   -23666143.320 7                        49.000    20760489.208  
 -17648870.257 8                        39.000  
  23043072.427   -12273595.786 5                        42.000    23043069.073  
  -8586258.344 7                        28.000  
  22989968.239   -12587793.851 7                        48.000    22989964.079  
  -9769410.856 7                        32.000  
  25049209.615    -1430541.853 5                        41.000    25049208.237  
   -386932.689 6                        23.000  
  21199453.108   -18988979.076 7                        51.000    21199448.362  
 -14758505.866 8                        39.000  
  23906296.204    -9382120.827 6                        45.000    23906293.009  
  -7269980.239 7                        27.000  
  20220607.628   -26855983.621 8                        53.000    20220605.194  
 -19377898.348 8                        41.000  
  23704599.007    -9372222.790 6                        43.000    23704596.766  
  -7099976.910 7                        28.000  
  20460960.503   -24665815.979 7                        50.000    20460957.429  
 -19181203.559 8                        40.000  
 11 05 11  5 10 20.0000000  0  9G11G14G17G19G20G23G24G31G32          0.000000000
  20763912.891   -23648173.973 7                        49.000    20763908.598  
 -17634868.178 8                        39.000  
  23048331.563   -12245957.095 6                        45.000    23048328.246  
  -8564721.711 7                        28.000  
  22986163.822   -12607785.808 7                        48.000    22986159.941  
  -9784988.999 7                        31.000  
  25056409.758    -1392704.468 5                        41.000    25056408.101  
   -357449.090 6                        22.000  
  21195219.271   -19011228.893 7                        51.000    21195214.447  
 -14775843.384 8                        39.000  
  23899243.832    -9419181.444 6                        45.000    23899240.832  
  -7298858.622 7                        27.000  
  20221226.765   -26852731.374 7                        52.000    20221224.029  
 -19375364.137 8                        41.000  
  23699821.902    -9397326.107 6                        44.000    23699819.847  
  -7119537.909 6                        26.000  
  20460465.906   -24668414.613 7                        50.000    20460462.658  
 -19183228.470 8                        40.000  
 11 05 11  5 10 30.0000000  0  9G11G14G17G19G20G23G24G31G32          0.000000000
  20767342.168   -23630151.693 7                        50.000    20767338.011  
 -17620824.866 8                        40.000  
  23053598.354   -12218279.683 6                        44.000    23053595.353  
  -8543154.896 7                        28.000  
  22982370.050   -12627722.665 7                        48.000    22982366.256  
  -9800524.208 7                        31.000  
  25063610.149    -1354867.366 5                        41.000    25063608.115  
   -327965.686 6                        22.000  
  21190992.488   -19033442.039 7                        52.000    21190987.707  
 -14793152.326 8                        39.000  
  23892194.280    -9456227.762 6                        45.000    23892191.428  
  -7327725.853 7                        28.000  
  20221855.443   -26849427.140 7                        52.000    20221853.012  
 -19372789.411 9                        42.000  
  23695052.687    -9422390.065 6                        43.000    23695050.563  
  -7139068.261 7                        27.000  
  20459980.043   -24670968.436 7                        51.000    20459976.598  
 -19185218.464 8                        40.000  
 11 05 11  5 10 40.0000000  0  9G11G14G17G19G20G23G24G31G32          0.000000000
  20770781.878   -23612076.938 7                        50.000    20770777.629  
 -17606740.650 8                        39.000  
  23058872.613   -12190563.952 6                        44.000    23058869.512  
  -8521558.247 7                        29.000  
  22978586.714   -12647604.614 7                        48.000    22978582.292  
  -9816016.628 7                        32.000  
  25070810.239    -1317030.820 5                        40.000    25070808.543  
   -298482.731 6                        23.000  
  21186772.386   -19055618.793 7                        50.000    21186767.858  
 -14810432.914 8                        39.000  
  23885146.972    -9493260.187 6                        44.000    23885144.006  
  -7356582.270 7                        28.000  
  20222494.053   -26846071.279 8                        53.000    20222491.676  
 -19370174.450 9                        42.000  
  23690290.498    -9447414.892 5                        42.000    23690288.169  
  -7158568.104 6                        25.000  
  20459502.549   -24673477.874 7                        51.000    20459499.200  
 -19187173.866 8                        40.000  
 11 05 11  5 10 50.0000000  0  9G11G14G17G19G20G23G24G31G32          0.000000000
  20774231.378   -23593949.568 7                        50.000    20774227.028  
 -17592615.441 8                        39.000  
  23064153.739   -12162809.833 6                        44.000    23064151.120  
  -8499931.680 7                        28.000  
  22974813.299   -12667431.459 7                        48.000    22974809.431  
  -9831466.113 7                        32.000  
  25078009.787    -1279194.803 5                        40.000    25078008.621  
   -269000.184 6                        23.000  
  21182559.512   -19077758.951 7                        51.000    21182554.586  
 -14827684.982 8                        39.000  
  23878102.444    -9530278.434 6                        44.000    23878099.840  
  -7385427.644 7                        28.000  
  20223142.679   -26842663.558 8                        53.000    20223139.913  
 -19367519.094 9                        42.000  
  23685536.090    -9472400.385 6                        43.000    23685533.297  
  -7178037.301 7                        27.000  
  20459033.814   -24675942.659 7                        51.000    20459030.165  
 -19189094.471 8                        41.000  
 11 05 11  5 11  0.0000000  0  9G11G14G17G19G20G23G24G31G32          0.000000000
  20777691.156   -23575769.414 7                        50.000    20777686.597  
 -17578449.092 8                        39.000  
  23069443.126   -12135017.221 6                        45.000    23069440.067  
  -8478275.124 7                        29.000  
  22971050.995   -12687202.965 7                        48.000    22971047.135  
  -9846872.476 7                        32.000  
  25085210.167    -1241359.158 5                        40.000    25085208.615  
   -239517.907 6                        23.000  
  21178353.008   -19099862.317 7                        51.000    21178348.008  
 -14844908.386 8                        39.000  
  23871061.406    -9567282.182 6                        45.000    23871058.474  
  -7414261.708 7                        28.000  
  20223801.265   -26839203.801 8                        53.000    20223798.270  
 -19364823.178 8                        41.000  
  23680789.413    -9497346.262 6                        44.000    23680786.070  
  -7197475.615 6                        25.000  
  20458572.897   -24678362.725 7                        50.000    20458569.545  
 -19190980.232 8                        41.000  
 11 05 11  5 11 10.0000000  0  9G11G14G17G19G20G23G24G31G32          0.000000000
  20781160.695   -23557536.803 7                        49.000    20781156.344  
 -17564241.872 8                        39.000  
  23074738.589   -12107186.434 6                        44.000    23074736.035  
  -8456588.807 7                        29.000  
  22967299.364   -12706919.300 6                        47.000    22967295.330  
  -9862235.852 7                        32.000  
  25092409.554    -1203524.255 5                        41.000    25092408.232  
   -210036.228 6                        23.000  
  21174153.949   -19121929.089 7                        49.000    21174149.316  
 -14862103.267 8                        39.000  
  23864022.283    -9604271.562 6                        44.000    23864019.420  
  -7443084.570 7                        28.000  
  20224469.221   -26835692.236 8                        53.000    20224466.244  
 -19362086.905 9                        42.000  
  23676049.654    -9522252.623 5                        42.000    23676047.285  
  -7216883.149 6                        26.000  
  20458120.686   -24680738.326 7                        49.000    20458117.457  
 -19192831.353 8                        41.000  
 11 05 11  5 11 20.0000000  0  9G11G14G17G19G20G23G24G31G32          0.000000000
  20784640.350   -23539251.466 7                        50.000    20784636.163  
 -17549993.565 8                        39.000  
  23080042.690   -12079317.305 6                        44.000    23080039.362  
  -8434872.633 7                        29.000  
  22963558.252   -12726580.010 7                        48.000    22963553.996  
  -9877555.884 7                        32.000  
  25099609.236    -1165689.916 5                        40.000    25099608.121  
   -180554.985 6                        23.000  
  21169961.746   -19143958.917 7                        51.000    21169957.106  
 -14879269.373 8                        39.000  
  23856985.850    -9641246.257 6                        43.000    23856983.221  
  -7471896.017 7                        28.000  
  20225147.281   -26832128.551 7                        52.000    20225144.280  
 -19359310.012 9                        42.000  
  23671317.574    -9547119.036 6                        43.000    23671315.406  
  -7236259.548 6                        26.000  
  20457677.110   -24683069.139 7                        50.000    20457673.839  
 -19194647.574 8                        40.000  
 11 05 11  5 11 30.0000000  0  9G11G14G17G19G20G23G24G31G32          0.000000000
  20788129.740   -23520913.969 7                        50.000    20788125.277  
 -17535704.618 8                        39.000  
  23085352.297   -12051410.508 6                        44.000    23085349.299  
  -8413127.077 7                        28.000  
  22959827.219   -12746185.705 6                        47.000    22959823.141  
  -9892833.033 7                        32.000  
  25106808.960    -1127856.818 5                        40.000    25106807.841  
   -151074.716 6                        23.000  
  21165776.281   -19165952.319 7                        51.000    21165771.756  
 -14896407.090 8                        39.000  
  23849953.087    -9678206.677 6                        44.000    23849949.902  
  -7500696.320 7                        29.000  
  20225835.142   -26828513.366 8                        53.000    20225832.418  
 -19356492.988 9                        42.000  
  23666593.468    -9571945.937 6                        43.000    23666590.895  
  -7255605.171 7                        27.000  
  20457242.129   -24685355.796 7                        49.000    20457239.095  
 -19196429.390 8                        40.000  
 11 05 11  5 11 40.0000000  0  9G11G14G17G19G20G23G24G31G32          0.000000000
  20791629.607   -23502523.836 7                        50.000    20791625.028  
 -17521374.654 8                        39.000  
  23090670.661   -12023465.476 6                        44.000    23090667.502  
  -8391351.762 7                        29.000  
  22956106.961   -12765735.658 7                        48.000    22956103.000  
  -9908066.767 7                        32.000  
  25114007.515    -1090024.448 5                        40.000    25114006.826  
   -121595.011 6                        22.000  
  21161597.690   -19187908.748 7                        50.000    21161594.038  
 -14913515.985 8                        39.000  
  23842922.010    -9715152.207 6                        44.000    23842919.715  
  -7529485.008 7                        28.000  
  20226533.069   -26824846.060 8                        53.000    20226530.208  
 -19353635.361 9                        42.000  
  23661876.888    -9596732.710 6                        44.000    23661874.517  
  -7274919.524 7                        28.000  
  20456815.365   -24687597.715 7                        49.000    20456812.237  
 -19198176.337 8                        40.000  
 11 05 11  5 11 50.0000000  0  9G11G14G17G19G20G23G24G31G32          0.000000000
  20795138.955   -23484081.195 7                        50.000    20795134.769  
 -17507003.779 8                        39.000  
  23095995.677   -11995482.448 6                        44.000    23095992.211  
  -8369546.814 7                        28.000  
  22952396.887   -12785229.826 7                        48.000    22952392.912  
  -9923257.019 7                        32.000  
  25121206.973    -1052192.717 5                        40.000    25121205.867  
    -92115.794 6                        22.000  
  21157426.851   -19209828.100 7                        49.000    21157423.209  
 -14930595.996 8                        39.000  
  23835894.566    -9752082.890 6                        44.000    23835891.693  
  -7558262.149 7                        29.000  
  20227240.855   -26821126.606 7                        52.000    20227237.983  
 -19350737.084 9                        42.000  
  23657167.629    -9621479.201 6                        44.000    23657165.091  
  -7294202.480 7                        27.000  
  20456397.004   -24689794.966 7                        49.000    20456393.703  
 -19199888.475 8                        40.000  
 11 05 11  5 12  0.0000000  0  9G11G14G17G19G20G23G24G31G32          0.000000000
  20798658.289   -23465586.554 7                        50.000    20798654.077  
 -17492592.371 8                        39.000  
  23101327.372   -11967461.882 6                        44.000    23101324.641  
  -8347712.617 7                        28.000  
  22948698.111   -12804668.631 7                        48.000    22948694.111  
  -9938404.141 7                        31.000  
  25128406.608    -1014362.448 5                        40.000    25128405.113  
    -62637.731 6                        23.000  
  21153262.612   -19231710.803 7                        50.000    21153259.028  
 -14947647.434 8                        39.000  
  23828869.934    -9788998.994 6                        44.000    23828866.718  
  -7587027.916 7                        28.000  
  20227958.742   -26817355.433 7                        52.000    20227955.811  
 -19347798.509 9                        42.000  
  23652465.999    -9646185.810 6                        44.000    23652464.541  
  -7313454.368 7                        28.000  
  20455987.610   -24691947.935 7                        50.000    20455984.028  
 -19201566.119 8                        40.000  
 11 05 11  5 12 10.0000000  0  9G11G14G17G19G20G23G24G31G32          0.000000000
  20802187.678   -23447039.583 7                        49.000    20802183.531  
 -17478140.192 8                        39.000  
  23106666.588   -11939403.570 6                        44.000    23106663.643  
  -8325849.021 7                        28.000  
  22945009.525   -12824051.683 6                        47.000    22945005.537  
  -9953507.820 7                        32.000  
  25135605.443     -976533.250 5                        42.000    25135603.280  
    -33160.491 6                        23.000  
  21149105.231   -19253556.628 7                        49.000    21149101.994  
 -14964670.157 8                        39.000  
  23821847.997    -9825900.197 6                        45.000    23821844.700  
  -7615782.084 7                        29.000  
  20228686.137   -26813532.285 7                        52.000    20228683.558  
 -19344819.441 8                        41.000  
  23647772.065    -9670852.147 6                        45.000    23647770.895  
  -7332674.865 7                        28.000  
  20455586.379   -24694056.419 7                        49.000    20455582.931  
 -19203209.094 8                        39.000  
 11 05 11  5 12 20.0000000  0  9G11G14G17G19G20G23G24G31G32          0.000000000
  20805726.904   -23428440.460 7                        51.000    20805722.687  
 -17463647.384 8                        39.000  
  23112013.344   -11911307.690 6                        45.000    23112010.508  
  -8303956.139 7                        27.000  
  22941331.133   -12843379.018 6                        47.000    22941327.780  
  -9968568.076 7                        32.000  
  25142803.372     -938705.386 5                        41.000    25142802.074  
     -3684.281 6                        23.000  
  21144955.118   -19275365.592 7                        50.000    21144951.631  
 -14981664.149 8                        39.000  
  23814828.247    -9862786.413 6                        44.000    23814825.462  
  -7644524.576 7                        28.000  
  20229423.455   -26809657.307 7                        52.000    20229420.784  
 -19341799.984 9                        42.000  
  23643086.163    -9695478.168 6                        44.000    23643084.613  
  -7351863.959 7                        28.000  
  20455193.430   -24696120.450 7                        50.000    20455190.250  
 -19204817.431 8                        40.000  
 11 05 11  5 12 30.0000000  0  9G11G14G17G19G20G23G24G31G32          0.000000000
  20809276.002   -23409789.183 7                        49.000    20809271.863  
 -17449113.937 8                        39.000  
  23117367.467   -11883174.401 6                        44.000    23117363.648  
  -8282034.118 7                        28.000  
  22937664.207   -12862650.452 6                        47.000    22937660.867  
  -9983584.776 7                        32.000  
  25150001.885     -900878.839 5                        41.000    25150000.388  
     25790.880 6                        23.000  
  21140812.217   -19297137.573 7                        49.000    21140808.421  
 -14998629.330 8                        39.000  
  23807811.725    -9899657.697 6                        44.000    23807809.109  
  -7673255.417 7                        28.000  
  20230170.842   -26805730.380 8                        53.000    20230168.071  
 -19338740.046 9                        42.000  
  23638407.287    -9720063.730 6                        44.000    23638406.033  
  -7371021.522 7                        27.000  
  20454809.384   -24698140.115 7                        49.000    20454806.052  
 -19206391.195 8                        40.000  
 11 05 11  5 12 40.0000000  0  9G11G14G17G19G20G23G24G31G32          0.000000000
  20812835.041   -23391085.594 7                        50.000    20812830.584  
 -17434539.722 8                        39.000  
  23122727.999   -11855003.566 6                        43.000    23122724.832  
  -8260082.836 7                        28.000  
  22934008.002   -12881865.805 6                        47.000    22934004.362  
  -9998557.774 7                        31.000  
  25157200.059     -863053.566 5                        42.000    25157198.290  
     55265.079 6                        23.000  
  21136676.298   -19318872.468 7                        49.000    21136672.503  
 -15015565.610 8                        38.000  
  23800799.304    -9936513.740 6                        44.000    23800795.777  
  -7701974.377 7                        29.000  
  20230927.925   -26801751.377 7                        52.000    20230925.313  
 -19335639.527 8                        41.000  
  23633736.019    -9744608.570 6                        44.000    23633735.544  
  -7390147.346 7                        27.000  
  20454433.598   -24700115.215 7                        50.000    20454430.287  
 -19207930.239 8                        40.000  
 11 05 11  5 12 50.0000000  0  9G11G14G17G19G20G23G24G31G32          0.000000000
  20816404.101   -23372330.000 7                        49.000    20816400.162  
 -17419924.990 8                        40.000  
  23128096.185   -11826795.491 6                        43.000    23128092.613  
  -8238102.539 7                        29.000  
  22930361.161   -12901025.247 6                        47.000    22930357.923  
 -10013487.205 7                        31.000  
  25164397.003     -825229.960 5                        41.000    25164395.869  
     84737.943 6                        22.000  
  21132547.071   -19340570.440 7                        50.000    21132543.281  
 -15032473.119 8                        38.000  
  23793787.836    -9973354.656 6                        45.000    23793785.199  
  -7730681.578 7                        29.000  
  20231694.949   -26797720.505 7                        52.000    20231692.397  
 -19332498.585 8                        41.000  
  23629073.956    -9769112.882 6                        44.000    23629072.252  
  -7409241.598 7                        28.000  
  20454066.080   -24702046.001 7                        50.000    20454062.276  
 -19209434.747 8                        40.000  
 11 05 11  5 13  0.0000000  0  9G11G14G17G19G20G23G24G31G32          0.000000000
  20819983.380   -23353522.499 7                        49.000    20819979.509  
 -17405269.802 8                        39.000  
  23133470.743   -11798550.380 6                        43.000    23133467.497  
  -8216093.370 7                        28.000  
  22926726.297   -12920128.731 6                        46.000    22926722.906  
 -10028373.035 7                        30.000  
  25171595.118     -787408.173 5                        40.000    25171593.230  
    114209.408 6                        23.000  
  21128424.961   -19362231.408 7                        49.000    21128421.722  
 -15049351.793 8                        38.000  
  23786780.209   -10010180.383 6                        44.000    23786777.221  
  -7759376.932 7                        29.000  
  20232471.869   -26793637.765 7                        52.000    20232469.159  
 -19329317.237 9                        42.000  
  23624418.486    -9793576.365 6                        44.000    23624417.344  
  -7428304.026 7                        28.000  
  20453707.237   -24703932.564 7                        50.000    20453703.814  
 -19210904.797 8                        40.000  
 11 05 11  5 13 10.0000000  0  9G11G14G17G19G20G23G24G31G32          0.000000000
  20823572.424   -23334663.049 7                        50.000    20823568.260  
 -17390574.140 8                        39.000  
  23138852.485   -11770268.121 6                        44.000    23138849.299  
  -8194055.263 7                        28.000  
  22923101.538   -12939175.968 6                        47.000    22923098.228  
 -10043215.044 7                        31.000  
  25178791.470     -749588.097 5                        41.000    25178789.734  
    143679.530 6                        23.000  
  21124310.172   -19383855.216 7                        49.000    21124306.891  
 -15066201.502 8                        38.000  
  23779775.829   -10046990.775 6                        44.000    23779772.409  
  -7788060.324 7                        28.000  
  20233259.096   -26789503.032 8                        53.000    20233256.362  
 -19326095.370 8                        41.000  
  23619770.902    -9817998.882 6                        44.000    23619769.939  
  -7447334.540 7                        28.000  
  20453356.640   -24705774.736 7                        50.000    20453353.189  
 -19212340.254 8                        40.000  
 11 05 11  5 13 20.0000000  0  9G11G14G17G19G20G23G24G31G32          0.000000000
  20827170.840   -23315751.670 7                        50.000    20827166.835  
 -17375838.008 8                        40.000  
  23144241.918   -11741948.789 6                        44.000    23144238.131  
  -8171988.279 7                        28.000  
  22919487.931   -12958166.922 6                        46.000    22919484.808  
 -10058013.175 7                        31.000  
  25185987.846     -711769.815 5                        41.000    25185986.792  
    173148.260 6                        23.000  
  21120202.618   -19405441.813 7                        50.000    21120199.302  
 -15083022.228 8                        39.000  
  23772773.254   -10083785.671 6                        45.000    23772770.202  
  -7816731.643 7                        27.000  
  20234055.686   -26785316.247 7                        52.000    20234052.942  
 -19322832.941 8                        41.000  
  23615131.410    -9842380.389 6                        45.000    23615130.120  
  -7466333.102 7                        29.000  
  20453014.433   -24707572.510 7                        49.000    20453010.877  
 -19213741.118 8                        40.000  
 11 05 11  5 13 30.0000000  0  9G11G14G17G19G20G23G24G31G32          0.000000000
  20830779.643   -23296788.552 7                        48.000    20830775.436  
 -17361061.569 8                        39.000  
  23149637.227   -11713592.674 5                        42.000    23149634.757  
  -8149892.626 7                        27.000  
  22915884.621   -12977101.742 6                        46.000    22915882.171  
 -10072767.579 7                        32.000  
  25193184.385     -673953.605 5                        40.000    25193182.961  
    202615.375 6                        24.000  
  21116101.858   -19426991.367 7                        48.000    21116098.161  
 -15099814.081 8                        39.000  
  23765774.983   -10120565.192 6                        44.000    23765771.298  
  -7845390.985 7                        28.000  
  20234862.053   -26781077.620 7                        52.000    20234859.198  
 -19319530.116 8                        41.000  
  23610499.349    -9866720.790 6                        44.000    23610498.407  
  -7485299.632 7                        28.000  
  20452680.461   -24709326.046 7                        49.000    20452677.442  
 -19215107.509 8                        40.000  
 11 05 11  5 13 40.0000000  0  9G11G14G17G19G20G23G24G31G32          0.000000000
  20834398.251   -23277773.364 7                        50.000    20834393.908  
 -17346244.552 8                        39.000  
  23155040.211   -11685199.400 6                        44.000    23155037.335  
  -8127768.012 7                        27.000  
  22912292.504   -12995979.964 6                        47.000    22912289.439  
 -10087477.889 7                        31.000  
  25200380.040     -636139.151 5                        40.000    25200379.206  
    232081.126 6                        23.000  
  21112008.054   -19448503.538 7                        48.000    21112004.665  
 -15116576.813 8                        39.000  
  23758778.476   -10157328.955 6                        45.000    23758775.586  
  -7874038.052 7                        28.000  
  20235678.552   -26776786.756 7                        52.000    20235675.770  
 -19316186.592 8                        41.000  
  23605875.071    -9891019.843 6                        44.000    23605874.412  
  -7504233.930 7                        28.000  
  20452355.574   -24711035.015 7                        50.000    20452351.927  
 -19216439.168 8                        40.000  
 11 05 11  5 13 50.0000000  0  9G11G14G17G19G20G23G24G31G32          0.000000000
  20838026.775   -23258706.295 7                        50.000    20838022.018  
 -17331387.106 8                        40.000  
  23160450.748   -11656769.318 6                        43.000    23160447.411  
  -8105614.725 7                        27.000  
  22908710.746   -13014801.602 7                        48.000    22908708.031  
 -10102144.109 7                        31.000  
  25207576.166     -598326.709 5                        40.000    25207574.300  
    261545.300 6                        25.000  
  21107921.564   -19469978.347 7                        49.000    21107918.115  
 -15133310.424 8                        39.000  
  23751786.167   -10194076.879 6                        45.000    23751782.546  
  -7902672.784 7                        27.000  
  20236504.955   -26772443.795 8                        53.000    20236502.385  
 -19312802.478 8                        41.000  
  23601259.338    -9915277.535 6                        45.000    23601258.567  
  -7523136.006 7                        29.000  
  20452038.605   -24712699.611 7                        50.000    20452035.148  
 -19217736.265 8                        40.000  
 11 05 11  5 14  0.0000000  0  9G11G14G17G19G20G23G24G31G32          0.000000000
  20841664.877   -23239587.786 7                        50.000    20841660.411  
 -17316489.577 8                        39.000  
  23165867.552   -11628302.899 6                        44.000    23165864.223  
  -8083433.118 7                        29.000  
  22905139.967   -13033566.978 6                        46.000    22905136.655  
 -10116766.477 7                        32.000  
  25214770.946     -560516.663 5                        41.000    25214769.555  
    291007.626 6                        23.000  
  21103842.137   -19491416.174 7                        50.000    21103838.800  
 -15150015.218 8                        39.000  
  23744795.773   -10230809.380 6                        44.000    23744792.494  
  -7931295.488 7                        27.000  
  20237341.260   -26768049.075 8                        53.000    20237338.947  
 -19309378.028 8                        41.000  
  23596650.790    -9939494.115 6                        44.000    23596649.845  
  -7542006.043 7                        28.000  
  20451730.439   -24714320.236 7                        49.000    20451726.915  
 -19218999.085 8                        40.000  
 11 05 11  5 14 10.0000000  0  9G11G14G17G19G20G23G24G31G32          0.000000000
  20845312.942   -23220417.413 7                        51.000    20845308.332  
 -17301551.635 8                        40.000  
  23171292.024   -11599799.752 6                        44.000    23171288.473  
  -8061222.891 7                        29.000  
  22901579.667   -13052275.683 6                        47.000    22901576.697  
 -10131344.702 7                        32.000  
  25221966.077     -522708.695 5                        41.000    25221963.858  
    320468.318 6                        23.000  
  21099769.907   -19512816.504 7                        49.000    21099766.379  
 -15166690.802 8                        39.000  
  23737808.874   -10267525.907 6                        45.000    23737805.760  
  -7959905.743 7                        28.000  
  20238187.473   -26763602.182 7                        52.000    20238185.102  
 -19305912.915 8                        41.000  
  23592050.781    -9963669.019 6                        43.000    23592049.456  
  -7560843.596 7                        29.000  
  20451430.354   -24715896.446 7                        50.000    20451427.004  
 -19220227.300 8                        40.000  
 11 05 11  5 14 20.0000000  0  9G11G14G17G19G20G23G24G31G32          0.000000000
  20848970.714   -23201195.380 7                        50.000    20848966.354  
 -17286573.434 8                        40.000  
  23176723.034   -11571260.233 6                        44.000    23176719.387  
  -8038984.327 7                        28.000  
  22898030.566   -13070927.794 6                        47.000    22898027.310  
 -10145878.808 7                        32.000  
  25229159.745     -484903.030 5                        40.000    25229157.855  
    349927.231 6                        22.000  
  21095704.447   -19534179.470 7                        48.000    21095701.085  
 -15183337.260 8                        39.000  
  23730824.919   -10304226.578 6                        45.000    23730821.643  
  -7988503.642 6                        26.000  
  20239043.233   -26759103.272 7                        52.000    20239040.810  
 -19302407.286 8                        41.000  
  23587458.401    -9987802.297 6                        44.000    23587457.246  
  -7579648.730 7                        30.000  
  20451138.787   -24717428.413 7                        49.000    20451135.816  
 -19221421.045 8                        40.000  
 11 05 11  5 14 30.0000000  0  9G11G14G17G19G20G23G24G31G32          0.000000000
  20852638.298   -23181921.776 7                        50.000    20852633.798  
 -17271555.054 8                        39.000  
  23182160.179   -11542684.285 6                        43.000    23182157.121  
  -8016717.365 7                        27.000  
  22894491.724   -13089523.039 6                        47.000    22894488.741  
 -10160368.618 7                        31.000  
  25236353.669     -447099.690 5                        40.000    25236351.200  
    379384.319 6                        22.000  
  21091646.294   -19555504.975 7                        49.000    21091642.723  
 -15199954.535 8                        39.000  
  23723844.494   -10340911.171 6                        45.000    23723840.478  
  -8017089.038 6                        26.000  
  20239909.413   -26754552.266 7                        52.000    20239906.846  
 -19298861.055 8                        41.000  
  23582873.789   -10011893.708 6                        43.000    23582872.939  
  -7598421.232 7                        30.000  
  20450855.671   -24718916.065 7                        49.000    20450852.483  
 -19222580.252 8                        40.000  
 11 05 11  5 14 40.0000000  0  9G11G14G17G19G20G23G24G31G32          0.000000000
  20856315.744   -23162596.714 7                        49.000    20856311.093  
 -17256496.578 8                        40.000  
  23187605.227   -11514072.105 6                        43.000    23187602.066  
  -7994422.166 7                        28.000  
  22890964.107   -13108061.485 6                        47.000    22890960.554  
 -10174814.160 7                        32.000  
  25243547.048     -409298.832 5                        40.000    25243544.975  
    408839.479 6                        23.000  
  21087595.125   -19576793.096 7                        49.000    21087591.794  
 -15216542.675 8                        39.000  
  23716866.338   -10377579.809 6                        45.000    23716862.482  
  -8045661.974 6                        26.000  
  20240785.564   -26749949.269 7                        52.000    20240782.929  
 -19295274.302 8                        41.000  
  23578297.528   -10035943.465 6                        43.000    23578296.462  
  -7617161.271 7                        27.000  
  20450580.932   -24720359.535 7                        49.000    20450577.813  
 -19223705.038 8                        40.000  
 11 05 11  5 14 50.0000000  0  9G11G14G17G19G20G23G24G31G32          0.000000000
  20860002.857   -23143220.027 7                        50.000    20859998.639  
 -17241397.870 8                        40.000  
  23193057.052   -11485423.585 6                        44.000    23193053.614  
  -7972098.676 7                        27.000  
  22887447.081   -13126542.998 6                        47.000    22887444.079  
 -10189215.326 7                        32.000  
  25250740.290     -371500.451 5                        41.000    25250737.570  
    438292.727 6                        23.000  
  21083551.676   -19598043.702 7                        50.000    21083547.612  
 -15233101.582 8                        39.000  
  23709891.261   -10414232.244 6                        46.000    23709887.921  
  -8074222.295 7                        27.000  
  20241671.603   -26745294.113 7                        52.000    20241668.968  
 -19291646.915 8                        41.000  
  23573728.087   -10059951.070 6                        43.000    23573727.779  
  -7635868.480 7                        28.000  
  20450314.950   -24721758.696 7                        48.000    20450311.404  
 -19224795.284 8                        40.000  
 11 05 11  5 15  0.0000000  0  9G11G14G17G19G20G23G24G31G32          0.000000000
  20863699.756   -23123791.999 7                        49.000    20863695.796  
 -17226259.150 8                        40.000  
  23198514.683   -11456739.083 6                        43.000    23198511.970  
  -7949747.124 7                        28.000  
  22883941.530   -13144967.650 7                        48.000    22883938.236  
 -10203572.202 7                        33.000  
  25257932.264     -333704.858 5                        41.000    25257930.586  
    467743.777 6                        22.000  
  21079514.840   -19619256.899 7                        48.000    21079510.971  
 -15249631.349 8                        38.000  
  23702920.346   -10450868.615 6                        46.000    23702916.004  
  -8102770.092 6                        25.000  
  20242567.077   -26740587.065 7                        52.000    20242564.499  
 -19287979.098 8                        41.000  
  23569167.940   -10083916.665 6                        43.000    23569166.682  
  -7654542.954 7                        29.000  
  20450057.349   -24723113.857 7                        50.000    20450053.491  
 -19225851.259 8                        40.000  
 11 05 11  5 15 10.0000000  0  9G11G14G17G19G20G23G24G31G32          0.000000000
  20867406.587   -23104312.643 7                        49.000    20867402.729  
 -17211080.446 8                        40.000  
  23203980.146   -11428018.605 5                        42.000    23203977.073  
  -7927367.561 7                        27.000  
  22880445.563   -13163335.268 6                        47.000    22880442.495  
 -10217884.634 7                        32.000  
  25265124.032     -295912.116 5                        41.000    25265122.195  
    497192.607 6                        23.000  
  21075485.382   -19640432.758 7                        48.000    21075480.880  
 -15266132.007 8                        38.000  
  23695951.491   -10487488.732 6                        46.000    23695947.142  
  -8131305.246 6                        25.000  
  20243472.886   -26735828.083 8                        53.000    20243470.284  
 -19284270.802 8                        41.000  
  23564615.251   -10107840.199 6                        43.000    23564614.320  
  -7673184.633 7                        30.000  
  20449807.590   -24724424.880 7                        50.000    20449803.607  
 -19226872.834 8                        40.000  
 11 05 11  5 15 20.0000000  0  9G11G14G17G19G20G23G24G31G32          0.000000000
  20871123.388   -23084781.811 7                        49.000    20871119.514  
 -17195861.623 8                        40.000  
  23209452.285   -11399262.019 6                        43.000    23209449.196  
  -7904959.834 7                        29.000  
  22876961.654   -13181645.644 6                        47.000    22876958.087  
 -10232152.457 7                        32.000  
  25272314.779     -258122.036 5                        41.000    25272313.537  
    526639.362 6                        22.000  
  21071462.835   -19661570.894 7                        48.000    21071458.485  
 -15282603.280 8                        39.000  
  23688985.560   -10524092.257 6                        46.000    23688982.037  
  -8159827.467 6                        26.000  
  20244388.015   -26731016.907 7                        52.000    20244385.575  
 -19280521.838 9                        42.000  
  23560070.839   -10131721.335 6                        44.000    23560069.712  
  -7691793.288 7                        28.000  
  20449566.717   -24725691.585 7                        51.000    20449563.130  
 -19227859.886 8                        40.000  
 11 05 11  5 15 30.0000000  0  9G11G14G17G19G20G23G24G31G32          0.000000000
  20874849.476   -23065199.796 7                        50.000    20874845.456  
 -17180602.925 8                        40.000  
  23214931.442   -11370469.740 6                        43.000    23214928.009  
  -7882524.309 7                        27.000  
  22873487.749   -13199898.988 6                        47.000    22873484.580  
 -10246375.837 7                        31.000  
  25279505.839     -220335.028 5                        41.000    25279503.977  
    556083.729 6                        22.000  
  21067447.415   -19682671.538 7                        49.000    21067443.559  
 -15299045.335 8                        39.000  
  23682023.525   -10560679.492 6                        46.000    23682019.988  
  -8188336.963 6                        26.000  
  20245313.705   -26726153.754 7                        52.000    20245311.278  
 -19276732.380 8                        41.000  
  23555535.078   -10155560.205 6                        44.000    23555532.653  
  -7710369.008 7                        29.000  
  20449333.913   -24726914.320 7                        51.000    20449330.662  
 -19228812.666 8                        40.000  
 11 05 11  5 15 40.0000000  0  9G11G14G17G19G20G23G24G31G32          0.000000000
  20878585.737   -23045566.362 7                        51.000    20878581.721  
 -17165304.156 8                        40.000  
  23220417.442   -11341641.551 6                        43.000    23220414.151  
  -7860060.808 7                        27.000  
  22870025.356   -13218094.915 6                        46.000    22870022.410  
 -10260554.476 7                        32.000  
  25286696.087     -182550.841 5                        41.000    25286693.978  
    585525.910 6                        23.000  
  21063439.298   -19703734.408 7                        49.000    21063435.408  
 -15315457.950 8                        39.000  
  23675064.274   -10597250.035 6                        46.000    23675060.495  
  -8216833.491 6                        26.000  
  20246248.931   -26721238.370 7                        52.000    20246246.036  
 -19272902.220 8                        41.000  
  23551006.774   -10179356.411 6                        43.000    23551004.786  
  -7728911.476 7                        28.000  
  20449109.702   -24728092.828 7                        50.000    20449106.193  
 -19229730.983 8                        40.000  
 11 05 11  5 15 50.0000000  0  9G11G14G17G19G20G23G24G31G32          0.000000000
  20882331.324   -23025881.960 7                        50.000    20882327.351  
 -17149965.679 8                        40.000  
  23225910.244   -11312777.914 5                        42.000    23225906.678  
  -7837569.679 7                        27.000  
  22866574.303   -13236233.744 6                        47.000    22866570.791  
 -10274688.619 7                        32.000  
  25293885.393     -144769.896 5                        42.000    25293883.731  
    614965.557 6                        23.000  
  21059438.110   -19724759.775 7                        49.000    21059434.748  
 -15331841.351 8                        39.000  
  23668108.500   -10633804.086 6                        46.000    23668104.548  
  -8245317.145 6                        26.000  
  20247194.216   -26716271.069 7                        52.000    20247191.569  
 -19269031.604 8                        41.000  
  23546486.303   -10203110.183 6                        44.000    23546484.581  
  -7747420.881 7                        27.000  
  20448893.694   -24729227.369 7                        51.000    20448890.310  
 -19230615.042 8                        40.000  
 11 05 11  5 16  0.0000000  0  9G11G14G17G19G20G23G24G31G32          0.000000000
  20886087.170   -23006146.338 7                        50.000    20886083.139  
 -17134587.280 8                        40.000  
  23231409.525   -11283878.646 6                        43.000    23231406.241  
  -7815050.779 7                        28.000  
  22863133.051   -13254315.130 6                        47.000    22863130.245  
 -10288778.008 7                        32.000  
  25301074.514     -106992.122 5                        41.000    25301072.854  
    644402.751 6                        23.000  
  21055444.702   -19745747.401 7                        50.000    21055440.724  
 -15348195.337 8                        39.000  
  23661155.100   -10670341.386 6                        46.000    23661152.086  
  -8273787.755 6                        25.000  
  20248149.559   -26711251.614 8                        53.000    20248146.548  
 -19265120.334 8                        41.000  
  23541974.163   -10226821.228 6                        43.000    23541971.896  
  -7765897.008 7                        27.000  
  20448686.137   -24730317.798 7                        50.000    20448682.923  
 -19231464.718 8                        40.000  
 11 05 11  5 16 10.0000000  0  9G11G14G17G19G20G23G24G31G32          0.000000000
  20889852.589   -22986359.686 7                        49.000    20889848.206  
 -17119169.118 8                        40.000  
  23236915.434   -11254943.942 6                        44.000    23236912.875  
  -7792504.281 7                        28.000  
  22859703.428   -13272339.038 6                        47.000    22859700.839  
 -10302822.618 7                        33.000  
  25308262.641      -69217.599 5                        41.000    25308261.255  
    673837.376 6                        22.000  
  21051457.832   -19766697.277 7                        49.000    21051454.230  
 -15364519.904 8                        39.000  
  23654205.898   -10706861.965 6                        46.000    23654201.923  
  -8302245.321 6                        26.000  
  20249114.670   -26706180.041 8                        53.000    20249111.549  
 -19261168.470 8                        41.000  
  23537470.337   -10250489.403 6                        44.000    23537467.683  
  -7784339.736 7                        28.000  
  20448487.007   -24731364.155 7                        49.000    20448483.980  
 -19232280.060 8                        40.000  
 11 05 11  5 16 20.0000000  0  9G11G14G17G19G20G23G24G31G32          0.000000000
  20893627.272   -22966521.974 7                        48.000    20893623.448  
 -17103711.167 8                        40.000  
  23242428.615   -11225973.846 6                        43.000    23242425.921  
  -7769930.192 7                        28.000  
  22856283.819   -13290305.471 6                        47.000    22856281.354  
 -10316822.439 7                        32.000  
  25315450.362      -31446.515 5                        41.000    25315448.413  
    703269.369 6                        23.000  
  21047478.626   -19787609.430 7                        49.000    21047474.685  
 -15380815.088 8                        39.000  
  23647259.394   -10743365.741 6                        46.000    23647256.331  
  -8330689.812 7                        28.000  
  20250089.459   -26701056.398 8                        53.000    20250086.687  
 -19257176.035 8                        41.000  
  23532974.855   -10274114.682 6                        43.000    23532971.655  
  -7802749.018 7                        28.000  
  20448296.171   -24732366.513 7                        49.000    20448292.860  
 -19233061.117 8                        40.000  
 11 05 11  5 16 30.0000000  0  9G11G14G17G19G20G23G24G31G32          0.000000000
  20897411.921   -22946633.453 7                        48.000    20897408.150  
 -17088213.633 8                        39.000  
  23247947.799   -11196968.624 6                        44.000    23247945.125  
  -7747328.751 7                        28.000  
  22852876.892   -13308214.443 6                        47.000    22852873.889  
 -10330777.474 7                        33.000  
  25322637.365        6321.139 5                        41.000    25322635.989  
    732698.640 6                        21.000  
  21043506.384   -19808483.912 7                        50.000    21043502.397  
 -15397080.915 8                        39.000  
  23640316.038   -10779852.669 6                        46.000    23640313.096  
  -8359121.169 6                        26.000  
  20251074.672   -26695880.802 8                        53.000    20251071.665  
 -19253143.107 8                        41.000  
  23528486.827   -10297697.120 6                        43.000    23528484.366  
  -7821124.931 7                        28.000  
  20448113.759   -24733325.028 7                        48.000    20448110.800  
 -19233808.013 8                        39.000  
 11 05 11  5 16 40.0000000  0  9G11G14G17G19G20G23G24G31G32          0.000000000
  20901206.537   -22926693.976 7                        49.000    20901202.716  
 -17072676.393 8                        40.000  
  23253474.541   -11167928.185 6                        43.000    23253471.485  
  -7724699.855 7                        28.000  
  22849479.322   -13326065.670 7                        48.000    22849476.639  
 -10344687.527 7                        32.000  
  25329823.281       44085.328 5                        41.000    25329822.377  
    762125.241 6                        21.000  
  21039541.315   -19829320.540 7                        50.000    21039537.397  
 -15413317.252 8                        39.000  
  23633375.999   -10816322.461 6                        45.000    23633372.833  
  -8387539.161 7                        27.000  
  20252069.152   -26690653.063 8                        53.000    20252066.661  
 -19249069.556 8                        41.000  
  23524008.164   -10321236.330 6                        44.000    23524005.083  
  -7839467.152 7                        28.000  
  20447939.606   -24734239.451 7                        50.000    20447936.167  
 -19234520.547 8                        40.000  
 11 05 11  5 16 50.0000000  0  9G11G14G17G19G20G23G24G31G32          0.000000000
  20905010.528   -22906703.450 7                        49.000    20905006.813  
 -17057099.372 8                        40.000  
  23259007.069   -11138852.532 6                        44.000    23259004.275  
  -7702043.508 7                        28.000  
  22846093.116   -13343858.997 6                        47.000    22846090.832  
 -10358552.465 7                        32.000  
  25337009.268       81846.042 5                        41.000    25337007.522  
    791549.133 6                        21.000  
  21035583.270   -19850119.075 7                        49.000    21035579.779  
 -15429523.900 8                        39.000  
  23626439.580   -10852775.025 6                        45.000    23626436.316  
  -8415943.734 7                        27.000  
  20253074.107   -26685373.052 7                        52.000    20253071.047  
 -19244955.262 8                        41.000  
  23519536.559   -10344732.126 6                        43.000    23519533.590  
  -7857775.551 7                        28.000  
  20447774.355   -24735109.671 7                        50.000    20447770.905  
 -19235198.643 8                        40.000  
 11 05 11  5 17  0.0000000  0  9G11G14G17G19G20G23G24G31G32          0.000000000
  20908824.137   -22886662.211 7                        49.000    20908820.614  
 -17041482.833 8                        40.000  
  23264546.638   -11109742.011 6                        43.000    23264543.982  
  -7679360.005 6                        26.000  
  22842718.370   -13361594.618 6                        47.000    22842715.459  
 -10372372.427 7                        31.000  
  25344194.670      119602.938 5                        42.000    25344192.727  
    820970.045 6                        21.000  
  21031632.560   -19870879.748 7                        50.000    21031628.938  
 -15445701.039 8                        40.000  
  23619506.021   -10889210.524 6                        45.000    23619502.817  
  -8444335.009 7                        27.000  
  20254088.747   -26680041.052 8                        53.000    20254085.657  
 -19240800.468 8                        41.000  
  23515074.147   -10368184.767 6                        44.000    23515070.481  
  -7876050.318 7                        29.000  
  20447617.056   -24735936.071 7                        50.000    20447613.425  
 -19235842.599 8                        39.000  
 11 05 11  5 17 10.0000000  0  9G11G14G17G19G20G23G24G31G32          0.000000000
  20912647.334   -22866570.055 7                        49.000    20912644.404  
 -17025826.621 8                        40.000  
  23270093.049   -11080596.413 5                        42.000    23270089.774  
  -7656649.156 7                        27.000  
  22839354.529   -13379272.259 6                        47.000    22839352.118  
 -10386147.225 7                        31.000  
  25351378.007      157356.132 5                        42.000    25351377.011  
    850388.096 6                        21.000  
  21027689.528   -19891602.417 7                        49.000    21027685.818  
 -15461848.569 8                        40.000  
  23612575.915   -10925628.703 6                        45.000    23612572.455  
  -8472712.788 6                        26.000  
  20255113.281   -26674656.829 8                        53.000    20255110.507  
 -19236604.975 8                        41.000  
  23510618.832   -10391593.880 6                        44.000    23510615.950  
  -7894291.180 7                        27.000  
  20447468.252   -24736718.424 7                        50.000    20447464.696  
 -19236452.228 8                        40.000  
 11 05 11  5 17 20.0000000  0  9G11G14G17G19G20G23G24G31G32          0.000000000
  20916480.637   -22846426.951 7                        48.000    20916476.944  
 -17010130.711 8                        40.000  
  23275646.111   -11051415.849 6                        43.000    23275642.996  
  -7633911.095 6                        25.000  
  22836001.461   -13396891.769 6                        46.000    22835998.107  
 -10399876.704 7                        32.000  
  25358562.252      195105.646 5                        42.000    25358560.436  
    879803.235 6                        20.000  
  21023753.338   -19912286.985 7                        49.000    21023749.814  
 -15477966.408 8                        40.000  
  23605648.946   -10962029.462 6                        45.000    23605645.637  
  -8501076.979 6                        26.000  
  20256147.962   -26669220.264 8                        53.000    20256144.770  
 -19232368.695 8                        41.000  
  23506173.254   -10414959.327 6                        45.000    23506169.364  
  -7912498.004 7                        29.000  
  20447327.851   -24737456.704 7                        49.000    20447324.235  
 -19237027.506 8                        40.000  
 11 05 11  5 17 30.0000000  0  9G11G14G17G19G20G23G24G31G32          0.000000000
  20920323.639   -22826233.503 7                        49.000    20920319.872  
 -16994395.572 8                        40.000  
  23281205.409   -11022200.869 5                        42.000    23281202.094  
  -7611146.190 7                        27.000  
  22832659.286   -13414453.486 6                        47.000    22832656.580  
 -10413561.161 7                        32.000  
  25365744.653      232850.910 5                        42.000    25365743.302  
    909215.100 6                        20.000  
  21019824.444   -19932933.787 7                        50.000    21019821.040  
 -15494054.831 8                        40.000  
  23598725.457   -10998413.133 6                        45.000    23598722.452  
  -8529427.878 7                        27.000  
  20257192.328   -26663731.901 7                        52.000    20257189.602  
 -19228092.056 8                        41.000  
  23501734.589   -10438281.452 6                        44.000    23501731.552  
  -7930671.075 7                        29.000  
  20447195.733   -24738151.363 7                        49.000    20447192.077  
 -19237568.805 8                        40.000  
 11 05 11  5 17 40.0000000  0  9G11G14G17G19G20G23G24G31G32          0.000000000
  20924175.576   -22805989.371 7                        49.000    20924171.996  
 -16978620.944 8                        40.000  
  23286770.690   -10992951.127 5                        42.000    23286768.230  
  -7588354.192 7                        27.000  
  22829328.286   -13431957.017 6                        47.000    22829325.760  
 -10427200.274 7                        32.000  
  25372926.818      270592.270 5                        41.000    25372925.105  
    938623.922 6                        21.000  
  21015902.852   -19953542.435 7                        49.000    21015899.149  
 -15510113.506 8                        40.000  
  23591804.932   -11034779.214 6                        44.000    23591802.160  
  -8557765.039 7                        28.000  
  20258246.708   -26658191.279 8                        53.000    20258243.789  
 -19223774.691 8                        41.000  
  23497305.459   -10461559.725 6                        45.000    23497302.119  
  -7948809.951 7                        28.000  
  20447071.582   -24738802.075 7                        50.000    20447068.329  
 -19238075.854 8                        40.000  
 11 05 11  5 17 50.0000000  0  9G11G14G17G19G20G23G24G31G32          0.000000000
  20928037.512   -22785694.684 7                        49.000    20928034.264  
 -16962806.910 8                        40.000  
  23292343.788   -10963666.788 6                        44.000    23292341.129  
  -7565535.239 7                        28.000  
  22826009.011   -13449402.327 6                        46.000    22826005.777  
 -10440794.027 7                        32.000  
  25380108.234      308329.550 5                        41.000    25380106.429  
    968029.523 6                        20.000  
  21011988.031   -19974112.983 7                        50.000    21011984.657  
 -15526142.502 8                        40.000  
  23584888.322   -11071127.682 6                        45.000    23584884.820  
  -8586088.511 7                        27.000  
  20259310.960   -26652598.436 7                        52.000    20259308.625  
 -19219416.634 8                        41.000  
  23492883.810   -10484794.057 6                        46.000    23492880.472  
  -7966914.615 7                        28.000  
  20446956.163   -24739408.878 7                        51.000    20446952.337  
 -19238548.688 8                        40.000  
 11 05 11  5 18  0.0000000  0  9G11G14G17G19G20G23G24G31G32          0.000000000
  20931909.257   -22765349.464 7                        50.000    20931906.074  
 -16946953.513 8                        40.000  
  23297923.254   -10934348.177 6                        44.000    23297920.094  
  -7542689.605 7                        28.000  
  22822700.374   -13466789.474 6                        46.000    22822697.212  
 -10454342.453 7                        32.000  
  25387288.165      346062.498 5                        40.000    25387286.749  
    997431.778 6                        21.000  
  21008081.042   -19994645.536 7                        50.000    21008077.315  
 -15542141.886 8                        40.000  
  23577974.830   -11107458.550 6                        45.000    23577971.540  
  -8614398.242 7                        28.000  
  20260384.895   -26646953.563 7                        52.000    20260382.574  
 -19215018.038 9                        42.000  
  23488470.568   -10507984.586 6                        45.000    23488467.881  
  -7984985.155 7                        30.000  
  20446849.388   -24739971.835 7                        50.000    20446845.730  
 -19238987.362 8                        40.000  
 11 05 11  5 18 10.0000000  0  9G11G14G17G19G20G23G24G31G32          0.000000000
  20935790.432   -22744953.641 7                        49.000    20935786.821  
 -16931060.667 8                        40.000  
  23303508.628   -10904995.069 6                        44.000    23303505.515  
  -7519817.079 7                        28.000  
  22819402.507   -13484118.257 6                        47.000    22819399.672  
 -10467845.402 7                        31.000  
  25394468.191      383791.306 5                        40.000    25394466.154  
   1026830.823 6                        21.000  
  21004181.280   -20015139.842 7                        50.000    21004177.422  
 -15558111.465 8                        40.000  
  23571064.309   -11143771.647 6                        46.000    23571061.031  
  -8642694.146 7                        28.000  
  20261468.912   -26641256.387 7                        52.000    20261466.217  
 -19210578.690 8                        41.000  
  23484066.073   -10531130.887 6                        45.000    23484063.289  
  -8003021.195 7                        29.000  
  20446750.296   -24740490.771 7                        50.000    20446747.167  
 -19239391.728 8                        40.000  
 11 05 11  5 18 20.0000000  0  9G11G14G17G19G20G23G24G31G32          0.000000000
  20939681.587   -22724507.625 7                        48.000    20939677.740  
 -16915128.721 8                        40.000  
  23309101.231   -10875607.818 6                        44.000    23309098.043  
  -7496917.923 7                        28.000  
  22816115.840   -13501388.886 6                        46.000    22816112.723  
 -10481303.037 7                        31.000  
  25401646.042      421515.580 5                        40.000    25401645.072  
   1056226.343 6                        20.000  
  21000288.437   -20035596.135 7                        51.000    21000284.801  
 -15574051.439 8                        40.000  
  23564157.813   -11180067.086 6                        46.000    23564154.322  
  -8670976.280 7                        29.000  
  20262563.009   -26635507.254 7                        52.000    20262560.949  
 -19206098.846 8                        41.000  
  23479669.715   -10554233.203 6                        45.000    23479666.894  
  -8021022.975 7                        30.000  
  20446660.002   -24740966.080 7                        49.000    20446656.668  
 -19239762.103 8                        40.000  
 11 05 11  5 18 30.0000000  0  9G11G14G17G19G20G23G24G31G32          0.000000000
  20943581.528   -22704010.978 7                        50.000    20943577.573  
 -16899157.325 8                        41.000  
  23314699.939   -10846186.131 6                        45.000    23314696.754  
  -7473991.952 7                        27.000  
  22812841.106   -13518600.825 6                        46.000    22812837.432  
 -10494714.932 7                        31.000  
  25408824.034      459235.580 5                        40.000    25408822.929  
   1085618.497 6                        21.000  
  20996403.139   -20056013.964 7                        50.000    20996398.742  
 -15589961.429 8                        39.000  
  23557253.943   -11216344.429 6                        46.000    23557250.655  
  -8699244.320 7                        28.000  
  20263667.269   -26629705.735 7                        52.000    20263664.556  
 -19201578.189 8                        41.000  
  23475282.085   -10577291.000 6                        44.000    23475279.148  
  -8038990.058 7                        28.000  
  20446577.808   -24741397.380 7                        51.000    20446574.481  
 -19240098.184 8                        40.000  
 11 05 11  5 18 40.0000000  0  9G11G14G17G19G20G23G24G31G32          0.000000000
  20947491.598   -22683464.159 7                        49.000    20947487.658  
 -16883146.825 8                        40.000  
  23320304.778   -10816730.358 6                        44.000    23320302.483  
  -7451039.433 7                        27.000  
  22809576.768   -13535754.331 6                        46.000    22809573.610  
 -10508081.295 7                        31.000  
  25416001.906      496951.096 5                        40.000    25415999.894  
   1115007.137 6                        20.000  
  20992525.142   -20076393.562 7                        50.000    20992520.913  
 -15605841.631 8                        40.000  
  23550354.393   -11252603.870 6                        46.000    23550350.988  
  -8727498.398 7                        29.000  
  20264781.050   -26623852.106 8                        53.000    20264778.157  
 -19197016.924 8                        41.000  
  23470902.600   -10600304.453 6                        44.000    23470900.239  
  -8056922.605 7                        30.000  
  20446504.098   -24741784.933 7                        50.000    20446500.642  
 -19240400.178 8                        40.000  
 11 05 11  5 18 50.0000000  0  9G11G14G17G19G20G23G24G31G32          0.000000000
  20951411.072   -22662867.105 7                        49.000    20951406.992  
 -16867097.187 8                        40.000  
  23325916.560   -10787240.706 6                        43.000    23325913.479  
  -7428060.494 6                        26.000  
  22806324.025   -13552849.281 6                        46.000    22806320.346  
 -10521402.037 7                        31.000  
  25423177.588      534661.874 5                        40.000    25423176.098  
   1144392.151 6                        20.000  
  20988654.333   -20096734.910 7                        50.000    20988649.650  
 -15621692.031 8                        40.000  
  23543457.867   -11288845.313 6                        46.000    23543454.262  
  -8755738.461 7                        28.000  
  20265904.925   -26617946.415 8                        53.000    20265902.581  
 -19192415.091 8                        41.000  
  23466531.366   -10623273.367 6                        44.000    23466529.765  
  -8074820.438 7                        29.000  
  20446438.570   -24742128.845 7                        50.000    20446435.672  
 -19240668.157 8                        40.000  
 11 05 11  5 19  0.0000000  0  9G11G14G17G19G20G23G24G31G32          0.000000000
  20955340.178   -22642219.980 7                        49.000    20955336.436  
 -16851008.533 8                        40.000  
  23331534.887   -10757717.312 6                        43.000    23331531.952  
  -7405055.278 6                        26.000  
  22803081.821   -13569885.767 6                        46.000    22803078.303  
 -10534677.214 7                        32.000  
  25430352.334      572367.902 5                        40.000    25430351.937  
   1173773.414 6                        19.000  
  20984790.587   -20117038.090 7                        50.000    20984786.609  
 -15637512.680 8                        39.000  
  23536565.093   -11325068.757 6                        46.000    23536561.271  
  -8783964.504 7                        29.000  
  20267038.655   -26611988.739 8                        53.000    20267035.905  
 -19187772.758 8                        41.000  
  23462168.667   -10646197.898 6                        43.000    23462167.117  
  -8092683.698 7                        29.000  
  20446381.633   -24742429.108 7                        51.000    20446378.448  
 -19240902.133 8                        40.000  
 11 05 11  5 19 10.0000000  0  9G11G14G17G19G20G23G24G31G32          0.000000000
  20959278.772   -22621522.648 7                        48.000    20959274.730  
 -16834880.756 8                        40.000  
  23337159.891   -10728160.104 6                        43.000    23337156.318  
  -7382023.707 6                        26.000  
  22799850.982   -13586863.564 6                        46.000    22799847.349  
 -10547906.670 7                        32.000  
  25437526.678      610069.072 5                        40.000    25437526.230  
   1203150.919 6                        19.000  
  20980934.278   -20137302.918 7                        50.000    20980930.175  
 -15653303.452 8                        40.000  
  23529675.278   -11361273.973 6                        46.000    23529671.549  
  -8812176.331 7                        29.000  
  20268182.750   -26605978.863 8                        53.000    20268179.984  
 -19183089.743 8                        41.000  
  23457814.815   -10669077.659 6                        43.000    23457813.392  
  -8110512.060 7                        29.000  
  20446332.652   -24742685.605 7                        50.000    20446329.191  
 -19241101.993 8                        40.000  
 11 05 11  5 19 20.0000000  0  9G11G14G17G19G20G23G24G31G32          0.000000000
  20963226.762   -22600775.186 7                        50.000    20963222.996  
 -16818713.908 8                        40.000  
  23342791.346   -10698569.082 6                        43.000    23342787.368  
  -7358965.785 7                        27.000  
  22796631.133   -13603782.551 6                        47.000    22796627.617  
 -10561090.293 7                        31.000  
  25444701.170      647765.517 5                        40.000    25444700.077  
   1232524.708 5                        18.000  
  20977085.471   -20157529.330 7                        52.000    20977080.911  
 -15669064.295 8                        39.000  
  23522788.821   -11397460.824 6                        47.000    23522785.723  
  -8840373.857 7                        30.000  
  20269335.617   -26599916.748 7                        52.000    20269333.323  
 -19178366.014 9                        42.000  
  23453469.623   -10691912.699 6                        43.000    23453467.965  
  -8128305.555 7                        29.000  
  20446292.289   -24742898.260 7                        51.000    20446289.361  
 -19241267.697 8                        40.000  
 11 05 11  5 19 30.0000000  0  9G11G14G17G19G20G23G24G31G32          0.000000000
  20967184.405   -22579977.617 7                        49.000    20967180.491  
 -16802508.017 8                        40.000  
  23348427.933   -10668944.439 6                        44.000    23348424.745  
  -7335881.668 6                        26.000  
  22793423.623   -13620642.546 6                        46.000    22793419.419  
 -10574227.956 7                        32.000  
  25451872.862      685457.096 4                        39.000    25451872.281  
   1261894.776 6                        19.000  
  20973243.601   -20177717.206 7                        51.000    20973238.724  
 -15684795.110 8                        39.000  
  23515906.453   -11433629.218 6                        47.000    23515902.358  
  -8868556.991 7                        29.000  
  20270499.596   -26593802.378 8                        53.000    20270497.021  
 -19173601.580 8                        41.000  
  23449132.693   -10714702.833 6                        43.000    23449130.854  
  -8146064.093 7                        28.000  
  20446260.123   -24743067.185 7                        51.000    20446257.016  
 -19241399.326 8                        41.000  
 11 05 11  5 19 40.0000000  0  9G11G14G17G19G20G23G24G31G32          0.000000000
  20971151.580   -22559130.220 7                        49.000    20971148.013  
 -16786263.306 8                        40.000  
  23354072.159   -10639286.311 6                        44.000    23354068.424  
  -7312771.465 6                        26.000  
  22790225.659   -13637443.685 6                        46.000    22790221.621  
 -10587319.747 7                        31.000  
  25459043.689      723143.452 5                        40.000    25459043.964  
   1291260.714 6                        20.000  
  20969409.172   -20197866.649 7                        51.000    20969404.861  
 -15700495.964 8                        39.000  
  23509027.064   -11469779.346 6                        47.000    23509023.553  
  -8896725.907 7                        29.000  
  20271672.777   -26587635.914 8                        53.000    20271670.084  
 -19168796.542 8                        41.000  
  23444804.298   -10737448.095 6                        43.000    23444802.151  
  -8163787.655 7                        28.000  
  20446236.171   -24743192.578 7                        50.000    20446233.105  
 -19241497.038 8                        40.000  
 11 05 11  5 19 50.0000000  0  9G11G14G17G19G20G23G24G31G32          0.000000000
  20975128.199   -22538232.961 7                        48.000    20975124.317  
 -16769979.740 8                        40.000  
  23359721.866   -10609594.797 6                        43.000    23359718.914  
  -7289635.234 7                        28.000  
  22787039.671   -13654185.903 6                        47.000    22787035.585  
 -10600365.629 7                        31.000  
  25466214.480      760824.643 5                        40.000    25466214.352  
   1320622.672 5                        18.000  
  20965581.746   -20217977.651 7                        50.000    20965577.321  
 -15716166.877 8                        38.000  
  23502151.818   -11505910.998 6                        47.000    23502148.359  
  -8924880.417 7                        29.000  
  20272855.935   -26581417.353 8                        53.000    20272853.459  
 -19163950.918 9                        42.000  
  23440484.448   -10760148.370 6                        43.000    23440482.374  
  -8181476.158 7                        28.000  
  20446220.711   -24743274.375 7                        50.000    20446217.846  
 -19241560.777 8                        40.000  
 11 05 11  5 20  0.0000000  0  9G11G14G17G19G20G23G24G31G32          0.000000000
  20979114.231   -22517285.649 7                        50.000    20979110.518  
 -16753657.169 8                        39.000  
  23365378.200   -10579869.831 6                        44.000    23365375.258  
  -7266472.949 6                        26.000  
  22783865.041   -13670868.994 6                        47.000    22783861.296  
 -10613365.444 7                        31.000  
  25473384.517      798500.677 5                        40.000    25473384.025  
   1349980.564 6                        19.000  
  20961762.449   -20238050.045 7                        50.000    20961758.037  
 -15731807.707 8                        38.000  
  23495279.528   -11542023.921 6                        47.000    23495275.698  
  -8953020.337 7                        29.000  
  20274049.907   -26575146.544 8                        53.000    20274047.105  
 -19159064.579 9                        42.000  
  23436173.515   -10782803.362 5                        42.000    23436171.120  
  -8199129.372 7                        27.000  
  20446213.514   -24743312.439 7                        50.000    20446210.375  
 -19241590.434 8                        40.000  
 11 05 11  5 20 10.0000000  0  9G11G14G17G19G20G23G24G31G32          0.000000000
  20983109.868   -22496288.447 7                        48.000    20983106.321  
 -16737295.731 8                        38.000  
  23371040.682   -10550111.582 6                        43.000    23371038.320  
  -7243284.712 6                        26.000  
  22780701.536   -13687492.961 6                        46.000    22780697.958  
 -10626319.179 7                        31.000  
  25480553.066      836171.538 4                        39.000    25480552.136  
   1379334.446 5                        18.000  
  20957950.141   -20258083.909 7                        50.000    20957945.237  
 -15747418.501 8                        38.000  
  23488410.634   -11578118.212 6                        47.000    23488407.326  
  -8981145.747 7                        29.000  
  20275253.059   -26568823.549 8                        53.000    20275250.025  
 -19154137.578 8                        41.000  
  23431871.188   -10805413.081 6                        43.000    23431868.865  
  -8216747.307 7                        28.000  
  20446214.610   -24743306.894 7                        50.000    20446211.442  
 -19241586.117 8                        40.000  
 11 05 11  5 20 20.0000000  0  9G11G14G17G19G20G23G24G31G32          0.000000000
  20987114.805   -22475241.510 7                        49.000    20987111.369  
 -16720895.529 8                        39.000  
  23376710.278   -10520320.214 6                        44.000    23376706.937  
  -7220070.686 6                        26.000  
  22777549.436   -13704057.876 6                        46.000    22777545.712  
 -10639226.906 7                        31.000  
  25487720.522      873836.927 4                        39.000    25487719.685  
   1408684.067 5                        18.000  
  20954145.036   -20278079.190 7                        51.000    20954140.860  
 -15762999.243 8                        38.000  
  23481545.785   -11614193.756 6                        47.000    23481542.430  
  -9009256.532 7                        29.000  
  20276466.209   -26562448.443 7                        52.000    20276462.936  
 -19149169.967 9                        42.000  
  23427577.770   -10827977.404 6                        43.000    23427575.107  
  -8234329.862 7                        29.000  
  20446223.900   -24743257.758 7                        51.000    20446220.483  
 -19241547.834 8                        40.000  
 11 05 11  5 20 30.0000000  0  9G11G14G17G19G20G23G24G31G32          0.000000000
  20991129.460   -22454144.943 7                        49.000    20991125.809  
 -16704456.662 8                        39.000  
  23382385.499   -10490495.699 6                        44.000    23382382.212  
  -7196830.830 7                        27.000  
  22774408.440   -13720563.532 6                        46.000    22774405.108  
 -10652088.464 7                        31.000  
  25494886.192      911496.853 4                        39.000    25494886.087  
   1438029.412 6                        19.000  
  20950347.494   -20298035.889 7                        51.000    20950342.881  
 -15778549.918 8                        38.000  
  23474684.854   -11650250.545 6                        47.000    23474681.534  
  -9037352.702 7                        31.000  
  20277689.254   -26556021.091 7                        52.000    20277686.280  
 -19144161.648 9                        42.000  
  23423291.488   -10850496.227 6                        43.000    23423289.665  
  -8251876.975 7                        29.000  
  20446241.846   -24743164.978 7                        51.000    20446238.048  
 -19241475.530 8                        41.000  
 11 05 11  5 20 40.0000000  0  9G11G14G17G19G20G23G24G31G32          0.000000000
  20995153.687   -22432998.811 7                        50.000    20995149.983  
 -16687979.164 8                        39.000  
  23388067.777   -10460638.298 6                        44.000    23388063.973  
  -7173565.333 6                        26.000  
  22771279.239   -13737010.007 6                        47.000    22771275.110  
 -10664903.894 7                        31.000  
  25502052.538      949151.293 4                        38.000    25502051.740  
   1467370.525 6                        19.000  
  20946557.078   -20317954.029 7                        50.000    20946552.883  
 -15794070.547 8                        39.000  
  23467826.894   -11686288.551 7                        48.000    23467823.424  
  -9065434.245 7                        30.000  
  20278921.966   -26549541.653 7                        52.000    20278919.045  
 -19139112.745 8                        41.000  
  23419015.415   -10872969.531 6                        43.000    23419012.919  
  -8269388.617 7                        28.000  
  20446267.435   -24743028.682 7                        51.000    20446263.907  
 -19241369.329 8                        40.000  
 11 05 11  5 20 50.0000000  0  9G11G14G17G19G20G23G24G31G32          0.000000000
  20999186.919   -22411803.230 7                        48.000    20999183.112  
 -16671463.147 8                        39.000  
  23393755.625   -10430748.177 6                        43.000    23393751.662  
  -7150274.350 6                        26.000  
  22768160.629   -13753397.196 6                        47.000    22768156.600  
 -10677673.130 7                        31.000  
  25509216.564      986799.835 4                        39.000    25509215.678  
   1496706.997 6                        19.000  
  20942774.178   -20337833.611 7                        49.000    20942769.845  
 -15809561.130 8                        39.000  
  23460972.757   -11722307.626 7                        48.000    23460969.269  
  -9093501.041 7                        30.000  
  20280164.736   -26543010.212 7                        52.000    20280162.409  
 -19134023.306 8                        41.000  
  23414748.055   -10895397.246 6                        43.000    23414745.300  
  -8286864.735 7                        28.000  
  20446301.672   -24742849.024 7                        50.000    20446298.779  
 -19241229.336 8                        40.000  
 11 05 11  5 21  0.0000000  0  9G11G14G17G19G20G23G24G31G32          0.000000000
  21003230.004   -22390557.876 7                        50.000    21003226.327  
 -16654908.333 8                        39.000  
  23399449.345   -10400825.110 6                        43.000    23399446.115  
  -7126957.688 7                        27.000  
  22765053.368   -13769724.827 6                        47.000    22765050.036  
 -10690395.963 7                        32.000  
  25516379.823     1024442.825 4                        39.000    25516378.921  
   1526039.169 5                        18.000  
  20938998.923   -20357674.221 7                        49.000    20938994.488  
 -15825021.346 8                        39.000  
  23454122.448   -11758307.510 6                        47.000    23454118.449  
  -9121552.877 7                        30.000  
  20281417.552   -26536426.396 7                        52.000    20281414.890  
 -19128893.071 9                        42.000  
  23410489.022   -10917778.977 5                        42.000    23410485.838  
  -8304305.029 7                        28.000  
  20446344.196   -24742625.686 7                        50.000    20446340.964  
 -19241055.312 8                        40.000  
 11 05 11  5 21 10.0000000  0  9G11G14G17G19G20G23G24G31G32          0.000000000
  21007282.379   -22369263.229 7                        49.000    21007278.480  
 -16638315.112 8                        39.000  
  23405150.119   -10370869.474 6                        44.000    23405146.854  
  -7103615.654 6                        25.000  
  22761957.509   -13785993.001 7                        48.000    22761954.311  
 -10703072.456 7                        32.000  
  25523542.416     1062079.945 4                        38.000    25523540.940  
   1555366.775 5                        18.000  
  20935230.487   -20377476.257 7                        50.000    20935226.319  
 -15840451.502 8                        39.000  
  23447275.003   -11794288.367 6                        47.000    23447271.217  
  -9149589.892 7                        30.000  
  20282680.646   -26529790.577 8                        53.000    20282677.792  
 -19123722.308 9                        42.000  
  23406238.425   -10940114.985 5                        42.000    23406235.573  
  -8321709.667 7                        28.000  
  20446394.872   -24742359.044 7                        51.000    20446391.809  
 -19240847.533 8                        40.000  
 11 05 11  5 21 20.0000000  0  9G11G14G17G19G20G23G24G31G32          0.000000000
  21011343.875   -22347919.437 7                        50.000    21011339.928  
 -16621683.594 8                        39.000  
  23410856.373   -10340881.524 6                        43.000    23410853.373  
  -7080248.460 7                        27.000  
  22758873.787   -13802201.874 6                        47.000    22758869.917  
 -10715702.742 7                        32.000  
  25530702.871     1099710.906 4                        38.000    25530702.143  
   1584689.529 5                        18.000  
  20931469.523   -20397239.714 7                        50.000    20931465.288  
 -15855851.592 8                        38.000  
  23440431.835   -11830250.329 7                        48.000    23440428.525  
  -9177612.176 7                        30.000  
  20283952.972   -26523102.792 8                        53.000    20283950.428  
 -19118511.057 8                        41.000  
  23401997.182   -10962405.269 6                        43.000    23401993.580  
  -8339078.699 7                        28.000  
  20446453.542   -24742049.143 7                        51.000    20446450.621  
 -19240606.059 8                        40.000  
 11 05 11  5 21 30.0000000  0  9G11G14G17G19G20G23G24G31G32          0.000000000
  21015414.637   -22326525.873 7                        50.000    21015411.004  
 -16605013.302 8                        39.000  
  23416569.556   -10310860.740 6                        43.000    23416566.141  
  -7056855.667 6                        26.000  
  22755800.407   -13818350.815 6                        47.000    22755796.676  
 -10728286.339 7                        32.000  
  25537863.681     1137336.310 3                        37.000    25537862.391  
   1614008.035 5                        17.000  
  20927716.092   -20416964.071 7                        51.000    20927712.213  
 -15871221.212 8                        39.000  
  23433592.215   -11866192.664 6                        47.000    23433589.034  
  -9205619.166 7                        29.000  
  20285235.755   -26516362.505 7                        52.000    20285232.841  
 -19113258.882 8                        41.000  
  23397763.889   -10984649.060 6                        43.000    23397760.722  
  -8356411.495 7                        29.000  
  20446521.292   -24741695.486 7                        51.000    20446518.022  
 -19240330.478 8                        40.000  
 11 05 11  5 21 40.0000000  0  9G11G14G17G19G20G23G24G31G32          0.000000000
  21019495.455   -22305083.041 7                        50.000    21019491.296  
 -16588304.612 8                        39.000  
  23422288.382   -10280807.606 6                        44.000    23422285.450  
  -7033437.667 7                        27.000  
  22752738.599   -13834440.132 6                        47.000    22752735.386  
 -10740823.464 7                        32.000  
  25545022.086     1174955.525 3                        36.000    25545020.909  
   1643321.653 5                        17.000  
  20923970.038   -20436649.707 7                        51.000    20923965.716  
 -15886560.673 8                        39.000  
  23426756.105   -11902115.718 7                        48.000    23426752.687  
  -9233611.137 7                        29.000  
  20286528.266   -26509570.156 7                        52.000    20286525.628  
 -19107966.154 9                        42.000  
  23393539.305   -11006846.766 6                        43.000    23393536.949  
  -8373708.386 7                        28.000  
  20446596.555   -24741298.451 7                        51.000    20446593.431  
 -19240021.101 8                        41.000  
 11 05 11  5 21 50.0000000  0  9G11G14G17G19G20G23G24G31G32          0.000000000
  21023585.039   -22283590.855 7                        50.000    21023581.347  
 -16571557.470 8                        39.000  
  23428013.638   -10250722.086 6                        43.000    23428010.430  
  -7009994.423 6                        26.000  
  22749688.287   -13850469.568 6                        47.000    22749684.762  
 -10753313.934 7                        32.000  
  25552178.588     1212568.696 3                        36.000    25552178.352  
   1672630.618 6                        19.000  
  20920231.410   -20456296.375 7                        50.000    20920227.324  
 -15901869.756 8                        39.000  
  23419923.767   -11938019.310 7                        48.000    23419920.167  
  -9261587.942 7                        29.000  
  20287830.635   -26502725.459 7                        52.000    20287828.137  
 -19102632.630 8                        41.000  
  23389324.420   -11028998.114 5                        42.000    23389322.058  
  -8390969.150 7                        27.000  
  20446680.449   -24740857.845 7                        50.000    20446677.359  
 -19239677.779 8                        41.000  
 11 05 11  5 22  0.0000000  0  9G11G14G17G19G20G23G24G31G32          0.000000000
  21027684.301   -22262049.581 7                        50.000    21027680.535  
 -16554772.067 8                        39.000  
  23433744.525   -10220604.448 6                        44.000    23433741.088  
  -6986526.149 6                        25.000  
  22746649.809   -13866439.397 7                        48.000    22746645.837  
 -10765757.961 7                        33.000  
  25559335.166     1250175.522 3                        36.000    25559334.805  
   1701934.586 5                        18.000  
  20916500.123   -20475904.202 7                        50.000    20916496.013  
 -15917148.582 8                        39.000  
  23413095.399   -11973903.457 7                        48.000    23413092.012  
  -9289549.591 7                        29.000  
  20289142.966   -26495828.758 7                        52.000    20289140.675  
 -19097258.580 8                        41.000  
  23385117.429   -11051103.163 6                        44.000    23385115.581  
  -8408193.844 7                        28.000  
  20446772.561   -24740374.032 7                        51.000    20446769.288  
 -19239300.772 8                        40.000  
 11 05 11  5 22 10.0000000  0  9G11G14G17G19G20G23G24G31G32          0.000000000
  21031793.081   -22240459.122 7                        50.000    21031788.806  
 -16537948.345 8                        39.000  
  23439481.449   -10190454.526 6                        44.000    23439478.309  
  -6963032.735 6                        25.000  
  22743622.113   -13882349.271 7                        48.000    22743618.795  
 -10778155.265 8                        34.000  
  25566490.451     1287776.142 3                        37.000    25566490.458  
   1731233.776 5                        18.000  
  20912776.535   -20495473.047 7                        51.000    20912772.263  
 -15932397.034 8                        39.000  
  23406270.497   -12009767.912 6                        47.000    23406267.242  
  -9317495.909 7                        29.000  
  20290465.574   -26488879.822 7                        52.000    20290463.138  
 -19091843.828 8                        41.000  
  23380920.573   -11073161.683 5                        42.000    23380917.633  
  -8425382.285 7                        28.000  
  20446872.838   -24739846.765 7                        50.000    20446869.542  
 -19238889.921 8                        41.000  
 11 05 11  5 22 20.0000000  0  9G11G14G17G19G20G23G24G31G32          0.000000000
  21035910.940   -22218819.652 7                        51.000    21035906.818  
 -16521086.439 8                        40.000  
  23445225.776   -10160272.652 6                        44.000    23445221.803  
  -6939514.405 6                        26.000  
  22740605.754   -13898199.310 7                        48.000    22740602.703  
 -10790505.947 7                        33.000  
  25573644.539     1325370.207 3                        36.000    25573644.430  
   1760527.830 5                        18.000  
  20909059.814   -20515002.966 7                        50.000    20909055.942  
 -15947615.141 8                        39.000  
  23399449.637   -12045612.766 6                        47.000    23399446.249  
  -9345426.941 7                        29.000  
  20291797.629   -26481878.812 7                        52.000    20291795.409  
 -19086388.508 8                        41.000  
  23376731.971   -11095173.786 6                        43.000    23376729.473  
  -8442534.553 7                        29.000  
  20446981.503   -24739276.249 7                        50.000    20446978.195  
 -19238445.363 8                        41.000  
 11 05 11  5 22 30.0000000  0  9G11G14G17G19G20G23G24G31G32          0.000000000
  21040038.170   -22197131.242 7                        51.000    21040034.044  
 -16504186.387 8                        40.000  
  23450975.434   -10130058.928 6                        44.000    23450970.961  
  -6915971.262 6                        26.000  
  22737601.334   -13913989.483 7                        48.000    22737597.837  
 -10802809.976 7                        32.000  
  25580797.432     1362957.736 3                        36.000    25580797.275  
   1789816.726 5                        18.000  
  20905350.992   -20534494.000 7                        50.000    20905347.259  
 -15962802.958 8                        39.000  
  23392632.269   -12081438.000 6                        47.000    23392628.568  
  -9373342.690 7                        29.000  
  20293139.983   -26474825.781 7                        51.000    20293137.643  
 -19080892.652 8                        41.000  
  23372551.800   -11117139.281 6                        44.000    23372549.764  
  -8459650.508 7                        29.000  
  20447098.294   -24738662.590 7                        51.000    20447094.998  
 -19237967.186 8                        40.000  
 11 05 11  5 22 40.0000000  0  9G11G14G17G19G20G23G24G31G32          0.000000000
  21044174.415   -22175393.630 7                        50.000    21044170.583  
 -16487248.003 8                        40.000  
  23456730.036   -10099813.205 5                        42.000    23456726.501  
  -6892403.186 6                        26.000  
  22734608.075   -13929719.541 6                        47.000    22734604.605  
 -10815067.169 7                        32.000  
  25587948.803     1400538.795 3                        37.000    25587948.650  
   1819100.672 5                        18.000  
  20901648.964   -20553945.848 7                        50.000    20901645.269  
 -15977960.236 8                        40.000  
  23385818.478   -12117243.215 7                        48.000    23385814.915  
  -9401242.830 7                        28.000  
  20294491.633   -26467720.411 7                        52.000    20294489.455  
 -19075356.003 8                        41.000  
  23368380.016   -11139057.844 6                        44.000    23368378.558  
  -8476729.876 7                        29.000  
  20447223.525   -24738005.451 7                        51.000    20447220.088  
 -19237455.139 8                        40.000  
 11 05 11  5 22 50.0000000  0  9G11G14G17G19G20G23G24G31G32          0.000000000
  21048320.308   -22153606.900 7                        50.000    21048316.180  
 -16470271.338 8                        39.000  
  23462492.738   -10069535.477 6                        45.000    23462488.410  
  -6868810.185 6                        25.000  
  22731626.129   -13945389.214 6                        47.000    22731622.846  
 -10827277.289 7                        32.000  
  25595098.501     1438113.503 4                        38.000    25595098.981  
   1848379.636 5                        17.000  
  20897955.412   -20573358.434 7                        50.000    20897951.485  
 -15993086.906 8                        39.000  
  23379008.531   -12153028.340 6                        46.000    23379005.116  
  -9429127.315 7                        28.000  
  20295854.265   -26460562.657 7                        52.000    20295851.355  
 -19069778.535 8                        41.000  
  23364218.599   -11160929.343 6                        44.000    23364216.646  
  -8493772.586 7                        30.000  
  20447356.722   -24737304.776 7                        51.000    20447353.165  
 -19236909.154 8                        40.000  
 11 05 11  5 23  0.0000000  0  9G11G14G17G19G20G23G24G31G32          0.000000000
  21052475.650   -22131771.496 7                        51.000    21052471.562  
 -16453256.749 8                        39.000  
  23468259.828   -10039226.259 6                        43.000    23468256.228  
  -6845192.617 6                        26.000  
  22728655.288   -13960998.870 6                        47.000    22728652.540  
 -10839440.667 7                        33.000  
  25602248.462     1475681.323 3                        37.000    25602247.499  
   1877653.246 5                        18.000  
  20894268.445   -20592732.165 7                        50.000    20894264.697  
 -16008183.322 8                        39.000  
  23372203.208   -12188793.685 6                        46.000    23372199.261  
  -9456996.393 7                        28.000  
  20297225.997   -26453352.924 7                        52.000    20297223.285  
 -19064160.567 8                        41.000  
  23360065.743   -11182754.048 6                        45.000    23360063.221  
  -8510778.823 7                        31.000  
  20447498.522   -24736561.064 7                        51.000    20447494.882  
 -19236329.643 8                        41.000  
 11 05 11  5 23 10.0000000  0  9G11G14G17G19G20G23G24G31G32          0.000000000
  21056639.857   -22109887.223 7                        50.000    21056635.880  
 -16436204.085 8                        39.000  
  23474033.458   -10008885.436 6                        44.000    23474029.514  
  -6821550.445 7                        27.000  
  22725696.878   -13976548.262 7                        48.000    22725693.223  
 -10851557.077 7                        32.000  
  25609394.554     1513242.396 4                        38.000    25609395.399  
   1906921.589 6                        19.000  
  20890589.353   -20612066.660 7                        50.000    20890585.365  
 -16023249.149 8                        39.000  
  23365400.675   -12224538.942 6                        46.000    23365397.646  
  -9484849.823 7                        27.000  
  20298607.897   -26446090.994 7                        52.000    20298605.553  
 -19058501.932 8                        41.000  
  23355921.204   -11204531.597 6                        43.000    23355919.739  
  -8527748.326 7                        31.000  
  20447648.184   -24735773.955 7                        51.000    20447644.625  
 -19235716.312 8                        40.000  
 11 05 11  5 23 20.0000000  0  9G11G14G17G19G20G23G24G31G32          0.000000000
  21060813.807   -22087954.200 7                        51.000    21060810.024  
 -16419113.433 8                        39.000  
  23479813.057    -9978513.166 5                        42.000    23479809.466  
  -6797883.761 6                        25.000  
  22722749.017   -13992037.381 7                        48.000    22722745.992  
 -10863626.534 7                        32.000  
  25616541.844     1550796.601 3                        37.000    25616542.415  
   1936184.577 6                        19.000  
  20886917.618   -20631361.906 7                        50.000    20886913.809  
 -16038284.405 8                        40.000  
  23358602.745   -12260264.020 6                        47.000    23358599.167  
  -9512687.539 7                        28.000  
  20299999.810   -26438776.846 7                        52.000    20299997.571  
 -19052802.609 8                        41.000  
  23351785.926   -11226261.987 6                        44.000    23351784.591  
  -8544681.068 7                        30.000  
  20447805.787   -24734943.648 7                        50.000    20447802.271  
 -19235069.324 8                        41.000  
 11 05 11  5 23 30.0000000  0  9G11G14G17G19G20G23G24G31G32          0.000000000
  21064996.901   -22065972.403 7                        50.000    21064993.152  
 -16401984.771 8                        39.000  
  23485598.503    -9948109.347 6                        43.000    23485595.196  
  -6774192.496 6                        25.000  
  22719813.474   -14007466.081 7                        48.000    22719809.862  
 -10875648.883 7                        33.000  
  25623687.162     1588344.025 3                        37.000    25623686.771  
   1965442.282 5                        18.000  
  20883253.399   -20650617.927 7                        50.000    20883249.305  
 -16053289.097 8                        40.000  
  23351807.840   -12295968.772 6                        46.000    23351804.775  
  -9540509.417 7                        28.000  
  20301401.448   -26431410.533 7                        52.000    20301398.928  
 -19047062.632 8                        41.000  
  23347659.624   -11247944.993 6                        44.000    23347658.393  
  -8561576.894 7                        31.000  
  20447972.416   -24734070.097 7                        50.000    20447968.840  
 -19234388.636 8                        41.000  
 11 05 11  5 23 40.0000000  0  9G11G14G17G19G20G23G24G31G32          0.000000000
  21069189.018   -22043942.084 7                        51.000    21069185.180  
 -16384818.306 8                        39.000  
  23491390.061    -9917674.365 5                        42.000    23491386.817  
  -6750476.956 6                        25.000  
  22716888.673   -14022834.475 7                        48.000    22716885.055  
 -10887624.253 7                        32.000  
  25630829.296     1625884.277 3                        36.000    25630830.476  
   1994694.404 5                        18.000  
  20879596.329   -20669834.837 7                        51.000    20879592.098  
 -16068263.306 8                        40.000  
  23345017.945   -12331653.350 6                        46.000    23345014.286  
  -9568315.561 7                        29.000  
  20302813.250   -26423992.151 7                        52.000    20302810.854  
 -19041282.074 8                        41.000  
  23343542.857   -11269580.775 6                        45.000    23343541.189  
  -8578435.916 7                        30.000  
  20448146.722   -24733153.525 7                        51.000    20448143.429  
 -19233674.425 8                        40.000  
 11 05 11  5 23 50.0000000  0  9G11G14G17G19G20G23G24G31G32          0.000000000
  21073390.465   -22021863.101 7                        51.000    21073387.009  
 -16367613.914 8                        40.000  
  23497187.356    -9887208.029 6                        43.000    23497184.635  
  -6726736.972 6                        24.000  
  22713975.819   -14038142.177 7                        48.000    22713972.265  
 -10899552.337 7                        33.000  
  25637973.112     1663417.446 3                        36.000    25637973.355  
   2023941.007 5                        16.000  
  20875947.125   -20689012.279 7                        50.000    20875943.348  
 -16083206.767 8                        40.000  
  23338230.577   -12367317.464 6                        46.000    23338227.457  
  -9596105.743 7                        29.000  
  20304234.829   -26416521.491 7                        52.000    20304232.375  
 -19035460.792 8                        40.000  
  23339434.716   -11291168.923 6                        43.000    23339433.090  
  -8595257.835 7                        31.000  
  20448329.452   -24732193.675 7                        51.000    20448325.457  
 -19232926.490 8                        40.000  
 11 05 11  5 24  0.0000000  0  9G11G14G17G19G20G23G24G31G32          0.000000000
  21077601.200   -21999735.653 7                        51.000    21077597.580  
 -16350371.758 8                        40.000  
  23502991.539    -9856710.677 6                        43.000    23502987.886  
  -6702972.847 6                        26.000  
  22711074.665   -14053389.418 7                        48.000    22711070.920  
 -10911433.302 7                        33.000  
  25645112.905     1700943.319 3                        36.000    25645114.083  
   2053181.925 5                        17.000  
  20872305.088   -20708150.514 7                        50.000    20872301.356  
 -16098119.672 8                        40.000  
  23331448.154   -12402961.194 6                        46.000    23331444.484  
  -9623880.053 7                        28.000  
  20305666.762   -26408998.789 7                        52.000    20305663.888  
 -19029598.954 8                        41.000  
  23335335.676   -11312709.506 6                        44.000    23335333.990  
  -8612042.686 7                        30.000  
  20448520.074   -24731190.724 7                        51.000    20448516.873  
 -19232144.964 8                        40.000  
 11 05 11  5 24 10.0000000  0 10G11G12G14G17G19G20G23G24G31G32       0.000000000
  21081821.396   -21977559.694 7                        50.000    21081817.682  
 -16333091.797 8                        40.000  
  25775604.811      304603.41111                        31.000                  
                                                
  23508799.969    -9826182.179 5                        41.000    23508796.957  
  -6679184.427 6                        26.000  
  22708184.359   -14068576.007 7                        48.000    22708180.785  
 -10923267.008 7                        33.000  
  25652253.176     1738461.958 2                        35.000    25652253.560  
   2082417.219 5                        16.000  
  20868671.149   -20727249.369 7                        50.000    20868666.949  
 -16113001.892 8                        40.000  
  23324669.196   -12438584.280 6                        46.000    23324665.694  
  -9651638.303 7                        28.000  
  20307108.087   -26401423.841 7                        52.000    20307105.533  
 -19023696.392 8                        40.000  
  23331245.803   -11334202.318 6                        44.000    23331244.149  
  -8628790.310 7                        30.000  
  20448719.336   -24730144.492 7                        51.000    20448716.058  
 -19231329.721 8                        40.000  
 11 05 11  5 24 20.0000000  0 10G11G12G14G17G19G20G23G24G31G32       0.000000000
  21086050.677   -21955335.235 7                        50.000    21086046.794  
 -16315774.047 8                        40.000  
  25772480.903      288176.621 2                        34.000                  
                                                
  23514616.384    -9795622.745 5                        42.000    23514612.368  
  -6655371.887 6                        26.000  
  22705305.939   -14083701.811 7                        48.000    22705302.556  
 -10935053.343 7                        33.000  
  25659392.107     1775973.323 3                        36.000    25659392.129  
   2111646.841 5                        17.000  
  20865043.817   -20746308.733 7                        51.000    20865040.272  
 -16127853.335 8                        40.000  
  23317894.604   -12474186.737 6                        46.000    23317890.435  
  -9679380.447 7                        28.000  
  20308559.305   -26393796.663 7                        52.000    20308556.626  
 -19017753.147 8                        41.000  
  23327165.783   -11355647.374 6                        46.000    23327163.498  
  -8645500.715 7                        30.000  
  20448926.525   -24729055.088 7                        51.000    20448922.969  
 -19230480.835 8                        40.000  
 11 05 11  5 24 30.0000000  0 10G11G12G14G17G19G20G23G24G31G32       0.000000000
  21090288.640   -21933062.611 7                        50.000    21090284.875  
 -16298418.774 8                        39.000  
  25769365.234      271801.015 2                        35.000                  
                                                
  23520437.041    -9765032.588 5                        42.000    23520433.301  
  -6631535.456 6                        25.000  
  22702439.012   -14098767.095 6                        47.000    22702435.801  
 -10946792.519 7                        33.000  
  25666527.317     1813477.017 2                        35.000    25666529.213  
   2140870.490 5                        16.000  
  20861424.486   -20765328.842 7                        51.000    20861420.794  
 -16142674.197 8                        40.000  
  23311123.190   -12509768.694 6                        46.000    23311119.476  
  -9707106.623 7                        29.000  
  20310020.724   -26386117.519 7                        51.000    20310018.092  
 -19011769.410 8                        41.000  
  23323093.244   -11377044.807 6                        45.000    23323091.070  
  -8662174.019 7                        30.000  
  20449141.771   -24727922.870 7                        51.000    20449138.553  
 -19229598.589 8                        40.000  
 11 05 11  5 24 40.0000000  0 10G11G12G14G17G19G20G23G24G31G32       0.000000000
  21094537.208   -21910736.274 7                        51.000    21094533.648  
 -16281021.642 8                        39.000  
  25766258.619      255482.443 1                        30.000                  
                                                
  23526265.256    -9734406.272 6                        43.000    23526261.396  
  -6607670.815 7                        27.000  
  22699585.184   -14113766.280 6                        47.000    22699581.829  
 -10958480.175 7                        33.000  
  25673664.907     1850978.553 2                        35.000    25673665.679  
   2170092.448 5                        16.000  
  20857813.937   -20784304.168 7                        51.000    20857809.832  
 -16157460.164 8                        40.000  
  23304357.008   -12545324.492 6                        47.000    23304353.559  
  -9734812.424 7                        29.000  
  20311492.904   -26378380.838 7                        52.000    20311490.480  
 -19005740.833 8                        41.000  
  23319031.255   -11398388.895 6                        47.000    23319029.606  
  -8678805.765 7                        30.000  
  20449366.602   -24726742.237 7                        51.000    20449363.370  
 -19228678.614 8                        40.000  
 11 05 11  5 24 50.0000000  0 10G11G12G14G17G19G20G23G24G31G32       0.000000000
  21098794.113   -21888367.208 7                        50.000    21098790.486  
 -16263591.214 8                        39.000  
  25763164.186      239210.154 1                        31.000                  
                                                
  23532097.909    -9703754.876 6                        43.000    23532094.126  
  -6583786.624 6                        25.000  
  22696740.970   -14128710.079 7                        48.000    22696737.826  
 -10970124.692 7                        33.000  
  25680798.933     1888467.005 3                        36.000    25680799.606  
   2199304.174 5                        16.000  
  20854209.113   -20803245.545 7                        51.000    20854205.647  
 -16172219.676 8                        41.000  
  23297594.087   -12580864.920 6                        46.000    23297590.580  
  -9762506.231 7                        29.000  
  20312973.958   -26370597.506 7                        52.000    20312971.409  
 -18999675.903 8                        41.000  
  23314978.025   -11419690.449 6                        45.000    23314975.897  
  -8695404.355 7                        30.000  
  20449598.342   -24725524.101 7                        51.000    20449594.725  
 -19227729.425 8                        40.000  
 11 05 11  5 25  0.0000000  0 10G11G12G14G17G19G20G23G24G31G32       0.000000000
  21103059.685   -21865950.084 7                        50.000    21103056.257  
 -16246123.343 8                        39.000  
  25760077.877      222989.431 1                        30.000                  
                                                
  23537936.528    -9673072.979 6                        43.000    23537932.988  
  -6559878.661 6                        26.000  
  22693908.760   -14143593.057 6                        47.000    22693905.519  
 -10981721.828 7                        33.000  
  25687930.879     1925947.638 3                        37.000    25687931.168  
   2228509.910 5                        17.000  
  20850612.461   -20822147.544 7                        50.000    20850608.648  
 -16186948.501 8                        40.000  
  23290834.258   -12616384.575 6                        45.000    23290830.881  
  -9790183.878 7                        28.000  
  20314464.859   -26362762.159 7                        52.000    20314462.389  
 -18993570.442 8                        41.000  
  23310933.784   -11440943.897 6                        45.000    23310931.582  
  -8711965.463 7                        30.000  
  20449838.391   -24724262.989 7                        50.000    20449834.904  
 -19226746.745 8                        40.000  
 11 05 11  5 25 10.0000000  0 10G11G12G14G17G19G20G23G24G31G32       0.000000000
  21107334.882   -21843484.897 7                        50.000    21107331.258  
 -16228618.015 8                        39.000  
  25757000.353      206820.658 2                        34.000                  
                                                
  23543780.991    -9642360.606 5                        41.000    23543777.190  
  -6535946.968 6                        25.000  
  22691088.512   -14158415.126 7                        48.000    22691085.133  
 -10993271.476 7                        33.000  
  25695062.000     1963420.400 2                        34.000    25695061.886  
   2257709.455 5                        16.000  
  20847023.107   -20841010.106 7                        51.000    20847019.030  
 -16201646.597 8                        39.000  
  23284079.341   -12651883.253 6                        46.000    23284076.005  
  -9817845.159 7                        28.000  
  20315965.972   -26354874.730 7                        51.000    20315963.348  
 -18987424.404 8                        41.000  
  23306898.641   -11462149.065 6                        46.000    23306896.135  
  -8728488.962 7                        30.000  
  20450086.296   -24722958.888 7                        51.000    20450082.783  
 -19225730.561 8                        40.000  
 11 05 11  5 25 20.0000000  0 10G11G12G14G17G19G20G23G24G31G32       0.000000000
  21111619.033   -21820971.560 7                        51.000    21111615.115  
 -16211075.170 8                        38.000  
  25753933.577      190703.882 2                        35.000                  
                                                
  23549631.223    -9611617.747 5                        41.000    23549628.002  
  -6511991.524 6                        23.000  
  22688279.453   -14173176.041 7                        48.000    22688276.787  
 -11004773.498 7                        33.000  
  25702191.224     2000885.421 2                        35.000    25702191.022  
   2286902.989 5                        16.000  
  20843441.130   -20859833.006 7                        50.000    20843437.147  
 -16216313.789 8                        40.000  
  23277328.423   -12687360.770 6                        47.000    23277324.719  
  -9845489.958 7                        28.000  
  20317476.952   -26346935.076 7                        52.000    20317474.402  
 -18981237.666 8                        41.000  
  23302872.123   -11483305.856 6                        45.000    23302870.466  
  -8744974.749 7                        31.000  
  20450343.058   -24721611.763 7                        51.000    20450339.181  
 -19224680.857 8                        40.000  
 11 05 11  5 25 30.0000000  0 10G11G12G14G17G19G20G23G24G31G32       0.000000000
  21115912.251   -21798410.120 7                        50.000    21115908.313  
 -16193494.842 8                        39.000  
  25750875.862      174639.178 4                        39.000                  
                                                
  23555486.982    -9580844.519 5                        41.000    23555483.671  
  -6488012.421 6                        23.000  
  22685482.422   -14187875.756 6                        47.000    22685479.617  
 -11016227.822 7                        33.000  
  25709319.190     2038342.588 1                        33.000    25709319.368  
   2316090.331 5                        17.000  
  20839866.554   -20878616.174 7                        50.000    20839862.801  
 -16230950.021 8                        40.000  
  23270581.460   -12722817.046 6                        46.000    23270577.809  
  -9873118.200 7                        29.000  
  20318997.542   -26338943.175 7                        52.000    20318994.943  
 -18975010.222 8                        41.000  
  23298855.109   -11504414.071 6                        45.000    23298853.351  
  -8761422.686 7                        31.000  
  20450607.397   -24720221.612 7                        50.000    20450603.406  
 -19223597.619 8                        40.000  
 11 05 11  5 25 40.0000000  0 10G11G12G14G17G19G20G23G24G31G32       0.000000000
  21120214.358   -21775801.978 7                        51.000    21120210.515  
 -16175878.127 8                        39.000  
  25747829.148      158625.356 5                        41.000    25747826.136  
    431700.05716                        20.000  
  23561348.287    -9550042.335 5                        41.000    23561345.289  
  -6464010.735 6                        24.000  
  22682696.296   -14202515.475 6                        47.000    22682693.641  
 -11027635.388 7                        33.000  
  25716444.585     2075790.571 1                        33.000    25716446.016  
   2345270.622 5                        16.000  
  20836299.712   -20897360.952 7                        51.000    20836295.604  
 -16245556.339 8                        40.000  
  23263838.516   -12758253.293 6                        47.000    23263834.821  
  -9900730.844 7                        29.000  
  20320528.184   -26330900.318 7                        51.000    20320525.355  
 -18968743.063 8                        41.000  
  23294847.461   -11525474.927 6                        45.000    23294845.342  
  -8777833.724 7                        30.000  
  20450880.203   -24718789.740 7                        51.000    20450876.238  
 -19222481.881 8                        40.000  
 11 05 11  5 25 50.0000000  0 10G11G12G14G17G19G20G23G24G31G32       0.000000000
  21124525.706   -21753144.797 7                        50.000    21124522.643  
 -16158223.197 8                        38.000  
  25744791.165      142664.803 6                        43.000    25744789.031  
    419263.262 6                        22.000  
  23567215.880    -9519208.815 5                        42.000    23567212.303  
  -6439984.640 6                        22.000  
  22679922.054   -14217092.808 7                        48.000    22679919.570  
 -11038994.357 7                        33.000  
  25723569.255     2113231.663 1                        33.000    25723570.943  
   2374445.417 5                        15.000  
  20832740.541   -20916064.883 7                        51.000    20832736.640  
 -16260130.817 8                        40.000  
  23257098.973   -12793667.047 6                        47.000    23257095.165  
  -9928325.960 7                        30.000  
  20322068.448   -26322804.121 7                        52.000    20322066.145  
 -18962434.345 8                        41.000  
  23290849.309   -11546485.991 6                        45.000    23290847.374  
  -8794205.957 7                        30.000  
  20451160.814   -24717313.747 7                        50.000    20451157.114  
 -19221331.753 8                        40.000  
 11 05 11  5 26  0.0000000  0 10G11G12G14G17G19G20G23G24G31G32       0.000000000
  21128846.650   -21730439.718 7                        50.000    21128842.790  
 -16140530.942 8                        39.000  
  25741764.261      126756.563 5                        42.000    25741762.385  
    406867.196 6                        22.000  
  23573089.165    -9488345.182 5                        42.000    23573085.496  
  -6415935.078 6                        23.000  
  22677160.284   -14231608.816 7                        48.000    22677157.496  
 -11050305.534 7                        33.000  
  25730692.678     2150664.764 2                        34.000    25730694.562  
   2403614.054 5                        15.000  
  20829189.053   -20934728.985 7                        51.000    20829185.279  
 -16274674.278 8                        40.000  
  23250364.448   -12829059.328 6                        47.000    23250360.196  
  -9955904.333 7                        28.000  
  20323619.307   -26314655.741 7                        51.000    20323616.812  
 -18956084.961 8                        40.000  
  23286860.441   -11567448.258 6                        44.000    23286858.135  
  -8810540.177 7                        29.000  
  20451450.338   -24715794.765 7                        51.000    20451446.208  
 -19220148.130 8                        40.000  
 11 05 11  5 26 10.0000000  0 10G11G12G14G17G19G20G23G24G31G32       0.000000000
  21133176.084   -21707686.871 7                        51.000    21133172.576  
 -16122801.466 8                        39.000  
  25738746.615      110900.512 4                        38.000    25738744.897  
    394511.811 6                        19.000  
  23578967.766    -9457451.629 5                        42.000    23578964.138  
  -6391862.201 6                        24.000  
  22674409.144   -14246063.604 6                        47.000    22674406.497  
 -11061569.007 8                        34.000  
  25737814.963     2188089.444 2                        35.000    25737815.691  
   2432776.185 5                        18.000  
  20825644.990   -20953353.429 7                        51.000    20825641.125  
 -16289186.827 8                        40.000  
  23243633.568   -12864430.135 6                        47.000    23243629.501  
  -9983465.989 7                        29.000  
  20325179.765   -26306455.300 7                        52.000    20325177.336  
 -18949695.022 8                        41.000  
  23282879.791   -11588361.734 6                        45.000    23282878.380  
  -8826836.368 7                        30.000  
  20451747.167   -24714232.927 7                        52.000    20451743.794  
 -19218931.119 8                        40.000  
 11 05 11  5 26 20.0000000  0 10G11G12G14G17G19G20G23G24G31G32       0.000000000
  21137515.244   -21684886.278 7                        51.000    21137511.040  
 -16105034.782 8                        39.000  
  25735739.250       95096.871 4                        38.000    25735737.950  
    382197.263 5                        17.000  
  23584852.604    -9426528.205 5                        42.000    23584848.877  
  -6367766.039 6                        25.000  
  22671670.485   -14260456.916 6                        47.000    22671667.512  
 -11072784.577 7                        33.000  
  25744934.303     2225505.871 2                        34.000    25744935.773  
   2461931.880 5                        16.000  
  20822108.383   -20971938.190 7                        51.000    20822104.530  
 -16303668.449 8                        40.000  
  23236906.976   -12899779.395 6                        47.000    23236902.761  
 -10011010.851 7                        31.000  
  20326750.121   -26298202.734 7                        52.000    20326748.031  
 -18943264.452 8                        40.000  
  23278910.227   -11609226.230 6                        44.000    23278908.110  
  -8843094.393 7                        30.000  
  20452052.485   -24712628.260 7                        51.000    20452048.839  
 -19217680.728 8                        40.000  
 11 05 11  5 26 30.0000000  0 10G11G12G14G17G19G20G23G24G31G32       0.000000000
  21141862.744   -21662038.265 7                        50.000    21141859.074  
 -16087231.144 8                        39.000  
  25732741.808       79345.330 5                        40.000    25732740.296  
    369923.352 5                        18.000  
  23590742.450    -9395575.197 5                        42.000    23590739.158  
  -6343646.841 6                        26.000  
  22668942.926   -14274789.073 7                        48.000    22668940.082  
 -11083952.490 7                        33.000  
  25752053.565     2262913.546 2                        34.000    25752054.604  
   2491080.727 5                        15.000  
  20818578.870   -20990483.374 7                        51.000    20818575.519  
 -16318119.239 8                        40.000  
  23230184.104   -12935107.297 6                        47.000    23230180.574  
 -10038539.076 7                        30.000  
  20328330.296   -26289898.334 7                        52.000    20328328.085  
 -18936793.503 8                        41.000  
  23274948.978   -11630042.005 6                        45.000    23274946.793  
  -8859314.462 7                        29.000  
  20452366.132   -24710981.079 7                        52.000    20452362.430  
 -19216397.212 8                        40.000  
 11 05 11  5 26 40.0000000  0 10G11G12G14G17G19G20G23G24G31G32       0.000000000
  21146219.970   -21639142.483 7                        50.000    21146216.008  
 -16069390.293 8                        39.000  
  25729754.208       63646.452 5                        42.000    25729752.835  
    357690.467 6                        20.000  
  23596639.223    -9364592.345 5                        41.000    23596635.399  
  -6319504.375 6                        25.000  
  22666227.970   -14289059.610 7                        48.000    22666225.312  
 -11095072.393 7                        33.000  
  25759169.363     2300312.916 2                        34.000    25759171.626  
   2520223.057 5                        16.000  
  20815057.654   -21008988.587 7                        50.000    20815053.448  
 -16332538.886 8                        40.000  
  23223465.587   -12970413.360 6                        47.000    23223461.643  
 -10066050.271 7                        30.000  
  20329920.436   -26281541.642 7                        51.000    20329918.370  
 -18930281.806 8                        41.000  
  23270997.126   -11650808.496 6                        44.000    23270994.812  
  -8875496.126 7                        29.000  
  20452687.731   -24709290.914 7                        52.000    20452683.992  
 -19215080.201 8                        40.000  
 11 05 11  5 26 50.0000000  0 10G11G12G14G17G19G20G23G24G31G32       0.000000000
  21150585.923   -21616199.087 7                        51.000    21150582.287  
 -16051512.323 8                        39.000  
  25726777.022       48000.310 5                        42.000    25726775.847  
    345498.662 6                        22.000  
  23602539.516    -9333579.848 5                        42.000    23602537.485  
  -6295338.831 6                        24.000  
  22663523.789   -14303268.450 7                        49.000    22663520.586  
 -11106144.207 7                        33.000  
  25766286.581     2337703.870 2                        34.000    25766286.995  
   2549358.844 5                        16.000  
  20811543.805   -21027453.728 7                        51.000    20811539.741  
 -16346927.304 8                        39.000  
  23216751.167   -13005697.554 7                        48.000    23216747.343  
 -10093544.420 7                        31.000  
  20331520.837   -26273132.698 7                        52.000    20331518.265  
 -18923729.395 8                        41.000  
  23267054.937   -11671525.598 6                        45.000    23267052.760  
  -8891639.314 7                        29.000  
  20453017.582   -24707557.819 7                        51.000    20453013.997  
 -19213729.742 8                        40.000  
 11 05 11  5 27  0.0000000  0 10G11G12G14G17G19G20G23G24G31G32       0.000000000
  21154960.720   -21593208.376 7                        50.000    21154957.233  
 -16033597.497 8                        39.000  
  25723809.995       32406.639 6                        43.000    25723807.914  
    333347.763 6                        22.000  
  23608447.308    -9302538.044 5                        41.000    23608444.205  
  -6271150.434 6                        26.000  
  22660831.525   -14317415.827 7                        48.000    22660828.813  
 -11117168.144 7                        33.000  
  25773398.890     2375086.017 2                        35.000    25773401.045  
   2578487.871 5                        17.000  
  20808037.620   -21045879.152 7                        50.000    20808033.339  
 -16361284.773 8                        40.000  
  23210041.415   -13040959.950 6                        47.000    23210037.666  
 -10121021.593 7                        30.000  
  20333130.956   -26264671.784 7                        52.000    20333128.331  
 -18917136.481 8                        41.000  
  23263122.044   -11692193.573 6                        45.000    23263119.621  
  -8907744.215 7                        29.000  
  20453355.065   -24705782.069 7                        51.000    20453351.619  
 -19212346.041 8                        40.000  
 11 05 11  5 27 10.0000000  0 10G11G12G14G17G19G20G23G24G31G32       0.000000000
  21159345.121   -21570170.084 7                        49.000    21159341.225  
 -16015645.591 8                        38.000  
  25720852.535       16865.784 5                        40.000    25720850.623  
    321238.005 6                        21.000  
  23614359.428    -9271466.743 5                        42.000    23614357.005  
  -6246939.057 6                        26.000  
  22658151.330   -14331501.351 7                        48.000    22658148.136  
 -11128143.876 7                        33.000  
  25780510.350     2412459.602 2                        34.000    25780513.064  
   2607610.048 5                        16.000  
  20804538.932   -21064264.508 7                        50.000    20804534.870  
 -16375611.022 8                        40.000  
  23203335.312   -13076200.343 6                        47.000    23203331.175  
 -10148481.631 7                        29.000  
  20334751.100   -26256158.600 7                        52.000    20334748.197  
 -18910502.844 8                        41.000  
  23259198.335   -11712811.876 6                        45.000    23259196.038  
  -8923810.413 7                        29.000  
  20453701.488   -24703963.395 7                        50.000    20453697.938  
 -19210928.903 8                        40.000  
 11 05 11  5 27 20.0000000  0 10G11G12G14G17G19G20G23G24G31G32       0.000000000
  21163737.975   -21547084.565 7                        50.000    21163734.741  
 -15997656.888 8                        39.000  
  25717905.414        1377.538 5                        40.000    25717903.598  
    309169.255 6                        20.000  
  23620278.191    -9240366.246 5                        42.000    23620275.113  
  -6222704.926 6                        25.000  
  22655482.734   -14345525.216 7                        48.000    22655479.644  
 -11139071.570 7                        33.000  
  25787621.239     2449824.352 2                        34.000    25787623.023  
   2636725.509 5                        16.000  
  20801048.090   -21082610.008 7                        50.000    20801043.792  
 -16389906.219 8                        40.000  
  23196632.862   -13111418.793 7                        48.000    23196629.303  
 -10175924.557 7                        31.000  
  20336381.132   -26247593.445 7                        52.000    20336378.185  
 -18903828.696 8                        41.000  
  23255284.212   -11733380.790 6                        44.000    23255282.184  
  -8939838.122 7                        30.000  
  20454055.706   -24702102.151 7                        51.000    20454051.965  
 -19209478.578 8                        40.000  
 11 05 11  5 27 30.0000000  0 10G11G12G14G17G19G20G23G24G31G32       0.000000000
  21168139.933   -21523951.953 7                        51.000    21168136.213  
 -15979631.492 8                        39.000  
  25714967.734      -14057.970 4                        38.000    25714967.097  
    297141.587 6                        20.000  
  23626201.911    -9209236.746 5                        42.000    23626198.862  
  -6198448.205 6                        26.000  
  22652825.780   -14359487.519 7                        49.000    22652822.568  
 -11149951.286 7                        33.000  
  25794729.234     2487179.957 1                        33.000    25794731.971  
   2665833.724 5                        16.000  
  20797564.625   -21100915.759 7                        51.000    20797560.449  
 -16404170.438 8                        39.000  
  23189935.517   -13146615.294 7                        49.000    23189931.379  
 -10203350.384 7                        31.000  
  20338020.662   -26238976.336 7                        52.000    20338017.894  
 -18897114.082 8                        41.000  
  23251379.127   -11753900.348 6                        45.000    23251377.138  
  -8955827.373 7                        30.000  
  20454418.036   -24700198.411 7                        51.000    20454414.194  
 -19207995.144 8                        40.000  
 11 05 11  5 27 40.0000000  0 10G11G12G14G17G19G20G23G24G31G32       0.000000000
  21172551.129   -21500771.940 7                        51.000    21172547.406  
 -15961569.157 8                        39.000  
  25712040.466      -29440.409 4                        38.000    25712040.059  
    285155.264 5                        18.000  
  23632131.186    -9178077.860 5                        41.000    23632128.100  
  -6174168.596 6                        25.000  
  22650180.727   -14373387.749 7                        48.000    22650177.930  
 -11160782.638 8                        34.000  
  25801836.766     2524526.910 1                        33.000    25801839.126  
   2694935.332 5                        16.000  
  20794088.806   -21119181.259 7                        51.000    20794084.850  
 -16418403.293 8                        40.000  
  23183242.422   -13181789.381 7                        48.000    23183238.237  
 -10230758.745 7                        31.000  
  20339670.368   -26230306.959 7                        52.000    20339667.698  
 -18890358.733 8                        41.000  
  23247484.265   -11774369.970 6                        44.000    23247482.238  
  -8971777.701 7                        29.000  
  20454788.216   -24698251.745 7                        52.000    20454784.529  
 -19206478.262 8                        40.000  
 11 05 11  5 27 50.0000000  0 10G11G12G14G17G19G20G23G24G31G32       0.000000000
  21176970.876   -21477544.800 7                        51.000    21176967.327  
 -15943470.111 8                        39.000  
  25709123.949      -44769.834 4                        38.000    25709123.051  
    273210.269 5                        17.000  
  23638065.914    -9146890.027 5                        42.000    23638063.500  
  -6149866.409 6                        25.000  
  22647547.543   -14387226.219 7                        49.000    22647544.306  
 -11171565.857 8                        34.000  
  25808942.179     2561864.681 2                        34.000    25808943.850  
   2724029.659 5                        16.000  
  20790620.464   -21137406.806 7                        50.000    20790616.348  
 -16432605.011 8                        40.000  
  23176552.975   -13216941.334 7                        48.000    23176548.876  
 -10258149.864 7                        31.000  
  20341330.120   -26221585.560 7                        52.000    20341327.195  
 -18883562.840 8                        40.000  
  23243598.932   -11794789.891 6                        46.000    23243596.019  
  -8987689.318 7                        30.000  
  20455166.939   -24696262.539 7                        51.000    20455162.885  
 -19204928.236 8                        40.000  
 11 05 11  5 28  0.0000000  0 10G11G12G14G17G19G20G23G24G31G32       0.000000000
  21181399.958   -21454270.516 7                        51.000    21181396.397  
 -15925334.318 8                        39.000  
  25706216.328      -60046.131 4                        39.000    25706216.054  
    261306.702 5                        18.000  
  23644006.450    -9115673.323 5                        41.000    23644003.718  
  -6125541.712 6                        24.000  
  22644925.875   -14401002.765 7                        49.000    22644922.657  
 -11182300.820 8                        34.000  
  25816045.847     2599193.431 2                        34.000                  
                                                
  20787159.907   -21155592.329 7                        50.000    20787155.655  
 -16446775.548 8                        40.000  
  23169868.377   -13252071.022 7                        48.000    23169863.923  
 -10285523.622 7                        31.000  
  20342999.841   -26212812.108 8                        53.000    20342997.156  
 -18876726.383 8                        41.000  
  23239722.407   -11815159.958 6                        46.000    23239719.549  
  -9003562.070 7                        30.000  
  20455553.629   -24694230.706 7                        51.000    20455549.722  
 -19203344.998 8                        40.000  
 11 05 11  5 28 10.0000000  0 10G11G12G14G17G19G20G23G24G31G32       0.000000000
  21185837.792   -21430949.099 7                        51.000    21185834.290  
 -15907161.794 8                        39.000  
  25703319.673      -75269.323 5                        41.000    25703318.812  
    249444.466 6                        20.000  
  23649952.325    -9084427.673 5                        41.000    23649948.952  
  -6101194.469 6                        24.000  
  22642315.704   -14414717.236 7                        48.000    22642312.630  
 -11192987.421 8                        34.000  
  25823147.453     2636513.058 2                        35.000                  
                                                
  20783706.975   -21173737.751 7                        51.000    20783702.804  
 -16460914.835 8                        39.000  
  23163187.171   -13287178.252 7                        49.000    23163183.187  
 -10312879.892 7                        32.000  
  20344679.180   -26203986.456 7                        51.000    20344676.529  
 -18869849.256 8                        41.000  
  23235855.565   -11835479.934 6                        44.000    23235852.573  
  -9019395.808 7                        29.000  
  20455948.163   -24692156.144 7                        52.000    20455944.553  
 -19201728.459 8                        40.000  
 11 05 11  5 28 20.0000000  0 10G11G12G14G17G19G20G23G24G31G32       0.000000000
  21190284.626   -21407580.601 7                        52.000    21190280.628  
 -15888952.594 8                        39.000  
  25700432.933      -90439.266 5                        40.000    25700432.002  
    237623.766 6                        20.000  
  23655903.898    -9053153.115 5                        42.000    23655900.022  
  -6076824.709 6                        23.000  
  22639718.123   -14428369.478 7                        49.000    22639714.884  
 -11203625.529 8                        34.000  
  25830247.284     2673823.511 2                        34.000                  
                                                
  20780261.376   -21191842.806 7                        51.000    20780257.375  
 -16475022.668 8                        39.000  
  23156510.514   -13322262.859 7                        48.000    23156506.635  
 -10340218.524 7                        31.000  
  20346368.479   -26195108.618 7                        52.000    20346365.881  
 -18862931.467 8                        41.000  
  23231998.676   -11855749.693 6                        45.000    23231995.610  
  -9035190.415 7                        29.000  
  20456350.890   -24690038.885 7                        51.000    20456347.405  
 -19200078.643 8                        40.000  
 11 05 11  5 28 30.0000000  0 10G11G12G14G17G19G20G23G24G31G32       0.000000000
  21194740.725   -21384165.222 7                        50.000    21194736.715  
 -15870706.853 8                        39.000  
  25697555.891     -105555.959 4                        38.000    25697555.916  
    225844.580 6                        20.000  
  23661859.879    -9021849.941 5                        41.000    23661857.230  
  -6052432.674 6                        25.000  
  22637132.209   -14441959.654 7                        49.000    22637128.895  
 -11214215.275 7                        33.000  
  25837346.605     2711124.572 2                        35.000                  
                                                
  20776823.783   -21209907.675 7                        51.000    20776819.730  
 -16489099.194 8                        39.000  
  23149838.955   -13357324.947 7                        48.000    23149834.447  
 -10367539.619 7                        30.000  
  20348067.844   -26186178.742 7                        52.000    20348065.327  
 -18855973.137 8                        41.000  
  23228150.502   -11875969.324 6                        45.000    23228148.027  
  -9050945.958 7                        29.000  
  20456762.115   -24687879.108 7                        51.000    20456758.363  
 -19198395.710 8                        40.000  
 11 05 11  5 28 40.0000000  0 10G11G12G14G17G19G20G23G24G31G32       0.000000000
  21199204.900   -21360702.903 7                        51.000    21199201.801  
 -15852424.548 8                        39.000  
  25694690.713     -120619.491 4                        39.000    25694689.321  
    214106.712 6                        19.000  
  23667822.951    -8990518.202 5                        41.000    23667819.275  
  -6028018.321 6                        24.000  
  22634557.328   -14455487.692 7                        48.000    22634554.048  
 -11224756.610 8                        34.000  
  25844441.050     2748416.199 1                        33.000                  
                                                
  20773394.033   -21227932.328 7                        50.000    20773389.636  
 -16503144.379 8                        40.000  
  23143170.983   -13392364.357 7                        48.000    23143167.217  
 -10394843.033 7                        31.000  
  20349777.174   -26177196.746 7                        51.000    20349774.636  
 -18848974.184 8                        41.000  
  23224312.743   -11896138.667 6                        45.000    23224309.941  
  -9066662.316 7                        29.000  
  20457181.423   -24685676.715 7                        51.000    20457177.757  
 -19196679.554 8                        40.000  
 11 05 11  5 28 50.0000000  0 10G11G12G14G17G19G20G23G24G31G32       0.000000000
  21203678.997   -21337193.982 7                        51.000    21203675.375  
 -15834105.923 8                        39.000  
  25691833.000     -135629.870 4                        39.000    25691833.144  
    202410.300 6                        19.000  
  23673790.459    -8959158.122 5                        41.000    23673786.802  
  -6003581.921 6                        25.000  
  22631995.481   -14468953.710 7                        49.000    22631991.740  
 -11235249.609 7                        33.000  
  25851535.959     2785698.041 1                        33.000                  
                                                
  20769971.960   -21245916.941 7                        51.000    20769967.400  
 -16517158.362 8                        40.000  
  23136506.998   -13427381.185 7                        48.000    23136503.252  
 -10422128.865 7                        31.000  
  20351496.256   -26168162.927 7                        52.000    20351493.454  
 -18841934.845 8                        40.000  
  23220484.482   -11916257.819 6                        45.000    23220481.579  
  -9082339.561 7                        29.000  
  20457608.531   -24683432.041 7                        51.000    20457604.960  
 -19194930.465 8                        40.000  
 11 05 11  5 29  0.0000000  0 10G11G12G14G17G19G20G23G24G31G32       0.000000000
  21208161.764   -21313637.993 7                        50.000    21208157.823  
 -15815750.621 8                        39.000  
  25688987.035     -150586.381 5                        40.000    25688986.637  
    190755.894 5                        18.000  
  23679763.339    -8927769.401 5                        41.000    23679760.378  
  -5979123.192 6                        24.000  
  22629444.583   -14482357.035 7                        49.000    22629441.187  
 -11245693.759 7                        33.000  
  25858628.157     2822970.696 2                        34.000                  
                                                
  20766556.955   -21263860.912 7                        50.000    20766552.802  
 -16531140.675 8                        40.000  
  23129848.191   -13462374.882 7                        48.000    23129843.895  
 -10449396.657 7                        31.000  
  20353225.263   -26159076.731 7                        51.000    20353222.397  
 -18834854.700 8                        40.000  
  23216664.979   -11936326.204 6                        44.000    23216662.035  
  -9097977.254 7                        29.000  
  20458043.496   -24681144.529 7                        51.000    20458040.385  
 -19193147.991 8                        41.000  
 11 05 11  5 29 10.0000000  0 10G11G12G14G17G19G20G23G24G31G32       0.000000000
  21212652.995   -21290035.400 7                        50.000    21212648.907  
 -15797359.004 8                        39.000  
  25686151.712     -165489.388 5                        41.000    25686149.998  
    179143.162 5                        18.000  
  23685742.294    -8896352.356 5                        41.000    23685738.843  
  -5954642.402 6                        25.000  
  22626905.305   -14495698.048 7                        49.000    22626902.294  
 -11256089.348 7                        32.000  
  25865718.289     2860233.609 1                        32.000                  
                                                
  20763149.798   -21281764.785 7                        50.000    20763145.926  
 -16545091.743 8                        40.000  
  23123193.519   -13497345.772 7                        48.000    23123189.298  
 -10476646.676 7                        31.000  
  20354964.182   -26149938.539 7                        51.000    20354961.610  
 -18827734.037 8                        40.000  
  23212855.318   -11956344.157 6                        44.000    23212852.585  
  -9113575.643 7                        29.000  
  20458487.078   -24678814.573 7                        51.000    20458483.329  
 -19191332.436 8                        40.000  
 11 05 11  5 29 20.0000000  0 10G11G12G14G17G19G20G23G24G31G32       0.000000000
  21217153.262   -21266386.101 7                        52.000    21217149.768  
 -15778930.984 8                        39.000  
  25683324.958     -180338.815 5                        42.000    25683324.114  
    167572.204 6                        21.000  
  23691725.643    -8864907.083 5                        42.000    23691722.737  
  -5930139.618 6                        23.000  
  22624379.389   -14508976.572 7                        48.000    22624375.679  
 -11266436.249 8                        34.000  
  25872808.650     2897486.900 1                        31.000                  
                                                
  20759750.376   -21299628.224 7                        50.000    20759746.617  
 -16559011.299 8                        40.000  
  23116542.724   -13532293.694 6                        47.000    23116538.740  
 -10503878.808 7                        31.000  
  20356712.825   -26140748.240 7                        51.000    20356710.284  
 -18820572.771 8                        41.000  
  23209056.119   -11976311.341 6                        44.000    23209053.071  
  -9129134.466 7                        28.000  
  20458938.278   -24676442.111 7                        52.000    20458935.216  
 -19189483.772 8                        41.000  
 11 05 11  5 29 30.0000000  0 10G11G12G14G17G19G20G23G24G31G32       0.000000000
  21221662.719   -21242690.225 7                        51.000    21221658.756  
 -15760466.672 8                        39.000  
  25680509.209     -195134.579 5                        40.000    25680509.261  
    156042.999 6                        21.000  
  23697715.546    -8833433.696 5                        41.000    23697712.365  
  -5905614.943 6                        25.000  
  22621864.012   -14522192.705 7                        48.000    22621860.716  
 -11276734.543 7                        33.000  
  25879895.241     2934730.361 1                        32.000                  
                                                
  20756358.839   -21317451.253 7                        50.000    20756355.220  
 -16572899.372 8                        40.000  
  23109897.058   -13567218.672 6                        47.000    23109893.464  
 -10531093.048 7                        31.000  
  20358471.547   -26131505.922 7                        51.000    20358469.353  
 -18813370.977 8                        40.000  
  23205265.908   -11996227.835 6                        44.000    23205263.080  
  -9144653.794 7                        28.000  
  20459398.077   -24674027.223 7                        50.000    20459394.814  
 -19187602.043 8                        41.000  
 11 05 11  5 29 40.0000000  0 10G11G12G14G17G19G20G23G24G31G32       0.000000000
  21226180.250   -21218947.766 7                        51.000    21226176.863  
 -15741966.072 8                        39.000  
  25677704.179     -209876.661 5                        40.000    25677703.913  
    144555.652 6                        20.000  
  23703709.369    -8801932.281 4                        39.000    23703706.932  
  -5881068.415 6                        24.000  
  22619360.313   -14535346.329 7                        48.000    22619357.535  
 -11286984.114 7                        33.000  
  25886980.749     2971964.055 1                        32.000                  
                                                
  20752974.923   -21335234.061 7                        50.000    20752971.279  
 -16586756.098 8                        40.000  
  23103254.971   -13602120.531 6                        47.000    23103251.444  
 -10558289.291 7                        30.000  
  20360240.168   -26122211.583 7                        51.000    20360237.877  
 -18806128.639 8                        40.000  
  23201485.626   -12016093.495 6                        44.000    23201482.760  
  -9160133.525 7                        29.000  
  20459865.626   -24671569.893 7                        51.000    20459862.555  
 -19185687.236 8                        40.000  
 11 05 11  5 29 50.0000000  0 10G11G12G14G17G19G20G23G24G31G32       0.000000000
  21230707.508   -21195158.641 7                        51.000    21230703.975  
 -15723429.111 8                        39.000  
  25674908.204     -224564.740 4                        39.000    25674908.574  
    133110.440 5                        18.000  
  23709709.331    -8770402.693 5                        41.000    23709706.676  
  -5856499.929 6                        24.000  
  22616869.991   -14548437.082 7                        49.000    22616866.362  
 -11297184.707 7                        33.000  
  25894063.238     3009188.121 1                        32.000                  
                                                
  20749599.063   -21352976.115 7                        51.000    20749595.086  
 -16600581.068 8                        40.000  
  23096618.138   -13636998.874 6                        47.000    23096614.320  
 -10585467.189 7                        30.000  
  20362018.704   -26112864.970 7                        51.000    20362016.476  
 -18798845.581 8                        40.000  
  23197715.154   -12035908.002 6                        44.000    23197712.298  
  -9175573.378 7                        28.000  
  20460341.354   -24669069.921 7                        51.000    20460337.780  
 -19183739.212 8                        41.000  
 11 05 11  5 30  0.0000000  0 10G11G12G14G17G19G20G23G24G31G32       0.000000000
  21235242.980   -21171323.220 7                        51.000    21235239.653  
 -15704856.067 8                        39.000  
  25672123.555     -239199.099 3                        36.000    25672123.424  
    121707.107 5                        18.000  
  23715714.820    -8738845.348 5                        41.000    23715711.450  
  -5831909.829 6                        25.000  
  22614390.190   -14561465.385 7                        49.000    22614387.309  
 -11307336.628 7                        32.000  
  25901144.441     3046401.937 1                        31.000                  
                                                
  20746230.191   -21370677.715 7                        51.000    20746226.353  
 -16614374.519 8                        40.000  
  23089985.362   -13671854.064 6                        47.000    23089981.882  
 -10612627.047 7                        31.000  
  20363807.274   -26103466.482 7                        51.000    20363804.897  
 -18791522.090 8                        41.000  
  23193953.934   -12055671.603 6                        43.000    23193951.553  
  -9190973.572 7                        28.000  
  20460825.521   -24666527.657 7                        51.000    20460821.801  
 -19181758.231 8                        41.000  
 11 05 11  5 30 10.0000000  0 10G11G12G14G17G19G20G23G24G31G32       0.000000000
  21239787.862   -21147441.632 7                        51.000    21239784.428  
 -15686247.058 8                        39.000  
  25669349.018     -253779.545 3                        36.000    25669349.058  
    110345.642 5                        18.000  
  23721725.076    -8707260.371 5                        40.000    23721722.262  
  -5807298.182 6                        23.000  
  22611923.413   -14574431.072 7                        48.000    22611920.116  
 -11317439.763 8                        34.000  
  25908224.847     3083605.619 1                        32.000                  
                                                
  20742869.451   -21388338.896 7                        50.000    20742865.825  
 -16628136.476 8                        40.000  
  23083356.483   -13706686.021 6                        47.000    23083353.401  
 -10639768.827 7                        30.000  
  20365605.632   -26094016.082 7                        51.000    20365603.406  
 -18784158.155 8                        41.000  
  23190202.615   -12075384.194 6                        43.000    23190200.084  
  -9206334.023 7                        28.000  
  20461317.182   -24663943.124 7                        51.000    20461313.508  
 -19179744.316 8                        41.000  
 11 05 11  5 30 20.0000000  0 10G11G12G14G17G19G20G23G24G31G32       0.000000000
  21244341.339   -21123512.336 7                        51.000    21244337.905  
 -15667600.866 8                        39.000  
  25666584.953     -268304.655 4                        38.000    25666585.157  
     99027.442 5                        16.000  
  23727741.415    -8675646.216 5                        40.000    23727738.204  
  -5782663.796 6                        23.000  
  22609467.998   -14587332.606 7                        48.000    22609465.244  
 -11327492.906 7                        33.000  
  25915303.336   -55169739.35811                        33.000                  
                                                
  20739516.381   -21405958.008 7                        50.000    20739512.857  
 -16641865.649 8                        40.000  
  23076733.619   -13741493.094 6                        46.000    23076729.798  
 -10666891.193 7                        31.000  
  20367414.016   -26084512.164 7                        51.000    20367412.109  
 -18776752.511 8                        40.000  
  23186461.004   -12095044.092 6                        43.000    23186459.049  
  -9221653.412 7                        29.000  
  20461817.217   -24661314.816 7                        51.000    20461813.931  
 -19177696.280 8                        40.000  
 11 05 11  5 30 30.0000000  0 10G11G12G14G17G19G20G23G24G31G32       0.000000000
  21248903.456   -21099539.635 7                        50.000    21248899.812  
 -15648920.854 8                        39.000  
  25663829.447     -282778.442 3                        36.000    25663830.907  
     87749.147 5                        18.000  
  23733762.447    -8644007.236 5                        41.000    23733758.878  
  -5758010.092 6                        23.000  
  22607024.226   -14600174.165 7                        49.000    22607021.379  
 -11337499.316 8                        34.000  
  25922378.600   -55132557.29311                        33.000                  
                                                
  20736171.209   -21423539.384 7                        50.000    20736167.387  
 -16655565.405 8                        40.000  
  23070113.815   -13776279.406 6                        46.000    23070109.887  
 -10693997.388 7                        30.000  
  20369232.420   -26074959.069 7                        51.000    20369229.876  
 -18769308.548 8                        40.000  
  23182729.255   -12114655.456 6                        43.000    23182727.148  
  -9236934.989 7                        28.000  
  20462324.977   -24658646.960 7                        50.000    20462321.472  
 -19175617.437 8                        41.000  
 11 05 11  5 30 40.0000000  0 10G11G12G14G17G19G20G23G24G31G32       0.000000000
  21253474.341   -21075519.361 7                        51.000    21253470.669  
 -15630203.773 8                        40.000  
  25661088.005    -1872616.58512                        35.000    25661086.587  
  -1151085.73015                        16.000  
  23739788.234    -8612339.318 5                        42.000    23739784.907  
  -5733333.798 6                        23.000  
  22604592.851   -14612951.475 7                        48.000    22604589.876  
 -11347455.652 7                        33.000  
  25929452.885   -55095384.108 1                        33.000                  
                                                
  20732833.544   -21441078.698 7                        50.000    20732829.620  
 -16669232.399 8                        41.000  
  23063498.813   -13811040.736 6                        47.000    23063494.924  
 -10721084.118 7                        30.000  
  20371060.536   -26065352.537 7                        52.000    20371057.698  
 -18761822.952 8                        40.000  
  23179007.300   -12134214.048 6                        43.000    23179005.498  
  -9252175.426 7                        28.000  
  20462840.822   -24655935.385 7                        51.000    20462837.434  
 -19173504.520 8                        41.000  
 11 05 11  5 30 50.0000000  0 10G11G12G14G17G19G20G23G24G31G32       0.000000000
  21258053.805   -21051453.134 7                        51.000    21258050.458  
 -15611450.885 8                        40.000  
  25658353.851    -1886980.845 3                        37.000    25658353.555  
  -1162278.652 5                        16.000  
  23745819.423    -8580644.217 5                        41.000    23745816.664  
  -5708636.353 6                        23.000  
  22602173.175   -14625666.120 7                        48.000    22602170.251  
 -11357363.170 7                        33.000  
  25936524.826   -55058221.488 1                        31.000                  
                                                
  20729503.829   -21458577.582 7                        51.000    20729499.835  
 -16682867.892 8                        40.000  
  23056888.441   -13845778.572 6                        46.000    23056884.766  
 -10748152.542 7                        29.000  
  20372898.374   -26055694.200 7                        52.000    20372895.862  
 -18754296.983 8                        40.000  
  23175294.980   -12153721.218 6                        43.000    23175292.675  
  -9267375.815 7                        28.000  
  20463364.921   -24653181.721 7                        50.000    20463361.315  
 -19171358.816 8                        41.000  
 11 05 11  5 31  0.0000000  0 10G11G12G14G17G19G20G23G24G31G32       0.000000000
  21262642.351   -21027340.702 7                        52.000    21262638.949  
 -15592661.989 8                        40.000  
  25655629.418    -1901290.550 3                        36.000    25655631.071  
  -1173429.106 5                        17.000  
  23751855.991    -8548921.669 5                        41.000    23751853.430  
  -5683917.483 6                        23.000  
  22599765.979   -14638317.691 6                        47.000    22599762.664  
 -11367221.540 7                        33.000  
  25943595.021   -55021069.071 2                        34.000                  
                                                
  20726181.535   -21476035.684 7                        51.000    20726177.960  
 -16696471.603 8                        40.000  
  23050282.765   -13880492.568 6                        46.000    23050278.574  
 -10775202.396 7                        31.000  
  20374745.997   -26045983.736 7                        52.000    20374743.700  
 -18746730.404 8                        40.000  
  23171593.500   -12173176.637 6                        43.000    23171590.916  
  -9282535.859 7                        29.000  
  20463896.774   -24650385.598 7                        51.000    20463893.162  
 -19169180.025 8                        40.000  
 11 05 11  5 31 10.0000000  0 10G11G12G14G17G19G20G23G24G31G32       0.000000000
  21267239.817   -21003182.229 7                        52.000    21267236.267  
 -15573837.219 8                        40.000  
  25652917.977    -1915546.006 2                        34.000    25652918.638  
  -1184537.259 5                        15.000  
  23757898.014    -8517171.775 5                        42.000    23757894.820  
  -5659177.332 6                        23.000  
  22597370.625   -14650906.223 7                        48.000    22597366.960  
 -11377030.785 7                        33.000  
  25950662.188   -54983927.244 1                        32.000                  
                                                
  20722867.074   -21493453.053 7                        50.000    20722863.542  
 -16710043.577 8                        40.000  
  23043681.578   -13915182.772 6                        45.000    23043677.763  
 -10802233.703 7                        31.000  
  20376604.110   -26036221.239 8                        53.000    20376601.265  
 -18739123.264 8                        40.000  
  23167901.118   -12192580.436 6                        44.000    23167898.212  
  -9297655.686 7                        29.000  
  20464437.079   -24647547.312 7                        51.000    20464433.392  
 -19166968.377 8                        40.000  
 11 05 11  5 31 20.0000000  0 10G11G12G14G17G19G20G23G24G31G32       0.000000000
  21271845.871   -20978978.150 7                        52.000    21271842.379  
 -15554976.909 8                        39.000  
  25650214.711    -1929747.274 3                        36.000    25650215.543  
  -1195603.158 5                        16.000  
  23763944.697    -8485394.974 5                        40.000    23763941.768  
  -5634416.200 6                        23.000  
  22594986.805   -14663431.885 7                        48.000    22594983.195  
 -11386791.042 7                        33.000  
  25957728.405   -54946796.242 1                        32.000                  
                                                
  20719560.383   -21510829.926 7                        50.000    20719556.710  
 -16723583.991 8                        41.000  
  23037084.749   -13949849.331 6                        46.000    23037080.765  
 -10829246.592 7                        31.000  
  20378471.629   -26026406.997 7                        52.000    20378468.583  
 -18731475.815 8                        40.000  
  23164217.913   -12211932.696 6                        43.000    23164215.799  
  -9312735.359 7                        29.000  
  20464985.454   -24644666.996 7                        51.000    20464982.155  
 -19164723.977 8                        40.000  
 11 05 11  5 31 30.0000000  0 10G11G12G14G17G19G20G23G24G31G32       0.000000000
  21276459.897   -20954728.174 7                        51.000    21276456.725  
 -15536080.845 8                        40.000  
  25647523.268    -1943893.988 3                        37.000    25647523.975  
  -1206626.579 5                        15.000  
  23769997.066    -8453591.022 5                        41.000    23769993.544  
  -5609633.934 6                        22.000  
  22592614.929   -14675894.387 7                        48.000    22592611.885  
 -11396502.094 7                        33.000  
  25964792.101   -54909675.647 1                        32.000                  
                                                
  20716261.423   -21528165.986 7                        51.000    20716257.773  
 -16737092.604 8                        41.000  
  23030492.108   -13984491.762 6                        46.000    23030488.657  
 -10856240.670 7                        30.000  
  20380349.073   -26016540.676 7                        52.000    20380346.106  
 -18723787.775 8                        40.000  
  23160545.405   -12231233.050 6                        44.000    23160543.112  
  -9327774.567 7                        29.000  
  20465541.452   -24641744.359 7                        50.000    20465537.632  
 -19162446.604 8                        40.000  
 11 05 11  5 31 40.0000000  0 10G11G12G14G17G19G20G23G24G31G32       0.000000000
  21281083.388   -20930432.509 7                        52.000    21281079.951  
 -15517149.173 8                        39.000  
  25644841.182    -1957986.202 3                        36.000    25644841.602  
  -1217607.491 5                        16.000  
  23776054.001    -8421760.209 5                        40.000    23776050.969  
  -5584830.729 6                        22.000  
  22590256.277   -14688293.745 7                        48.000    22590252.633  
 -11406163.930 7                        33.000  
  25971854.110   -54872566.054 1                        32.000                  
                                                
  20712970.395   -21545461.359 7                        51.000    20712966.621  
 -16750569.516 8                        41.000  
  23023904.164   -14019110.157 6                        47.000    23023900.472  
 -10883216.041 7                        31.000  
  20382236.152   -26006622.488 7                        51.000    20382233.166  
 -18716059.319 8                        40.000  
  23156883.133   -12250481.467 6                        44.000    23156880.701  
  -9342773.312 7                        29.000  
  20466105.445   -24638779.652 7                        51.000    20466102.115  
 -19160136.444 8                        40.000  
 11 05 11  5 31 50.0000000  0  9G11G12G14G17G20G23G24G31G32          0.000000000
  21285715.050   -20906094.629 7                        52.000    21285711.613  
 -15498184.601 8                        39.000  
  25642168.614    -1972027.372 2                        34.000    25642169.805  
  -1228548.706 5                        15.000  
  23782115.769    -8389906.072 5                        41.000    23782112.715  
  -5560009.343 6                        23.000  
  22587907.758   -14700633.402 7                        48.000    22587904.660  
 -11415779.241 7                        33.000  
  20709686.235   -21562719.368 7                        51.000    20709682.387  
 -16764017.316 8                        40.000  
  23017321.255   -14053707.950 6                        46.000    23017316.907  
 -10910175.331 7                        31.000  
  20384133.127   -25996655.857 7                        52.000    20384129.775  
 -18708293.127 8                        41.000  
  23153229.037   -12269681.331 6                        43.000    23153227.036  
  -9357734.247 7                        29.000  
  20466676.730   -24635776.283 7                        51.000    20466673.736  
 -19157796.169 8                        40.000  
 11 05 11  5 32  0.0000000  0 10G11G12G14G17G19G20G23G24G31G32       0.000000000
  21290356.233   -20881704.696 7                        52.000    21290352.648  
 -15479179.479 8                        39.000  
  25639508.833    -1986007.529 2                        34.000    25639509.386  
  -1239442.242 5                        16.000  
  23788183.826    -8358018.714 5                        40.000    23788180.813  
  -5535162.070 6                        23.000  
  22585572.573   -14712903.479 7                        48.000    22585569.115  
 -11425340.342 7                        33.000  
  25985971.833   -54798379.83711                        31.000                  
                                                
  20706411.138   -21579930.163 7                        52.000    20706407.080  
 -16777428.325 8                        40.000  
  23010742.753   -14088275.174 6                        47.000    23010738.845  
 -10937110.810 7                        31.000  
  20386040.849   -25986630.932 7                        52.000    20386037.745  
 -18700481.499 8                        40.000  
  23149586.921   -12288822.698 6                        44.000    23149584.202  
  -9372649.570 7                        29.000  
  20467257.694   -24632724.456 7                        51.000    20467254.494  
 -19155418.121 8                        40.000  
 11 05 11  5 32 10.0000000  0  9G11G12G14G17G20G23G24G31G32          0.000000000
  21295004.376   -20857276.556 7                        51.000    21295001.064  
 -15460144.578 8                        39.000  
  25636857.658    -1999940.432 3                        36.000    25636858.051  
  -1250299.180 5                        16.000  
  23794255.939    -8326112.032 5                        42.000    23794252.324  
  -5510299.742 6                        24.000  
  22583248.742   -14725117.689 7                        50.000    22583244.968  
 -11434857.902 8                        34.000  
  20703142.405   -21597107.459 7                        51.000    20703138.553  
 -16790813.231 8                        40.000  
  23004168.338   -14122825.563 6                        46.000    23004164.194  
 -10964033.174 7                        31.000  
  20387956.570   -25976561.421 7                        51.000    20387953.903  
 -18692635.123 8                        40.000  
  23145952.378   -12307919.280 6                        43.000    23145950.572  
  -9387530.020 7                        31.000  
  20467844.957   -24629637.875 7                        50.000    20467841.958  
 -19153012.998 8                        40.000  
 11 05 11  5 32 20.0000000  0  9G11G12G14G17G20G23G24G31G32          0.000000000
  21299662.117   -20832799.343 7                        51.000    21299659.220  
 -15441071.441 8                        39.000  
  25634218.297    -2013815.187 4                        38.000    25634217.651  
  -1261110.594 5                        16.000  
  23800333.513    -8294175.140 5                        41.000    23800329.975  
  -5485413.922 6                        23.000  
  22580937.141   -14737264.881 7                        49.000    22580933.271  
 -11444323.249 8                        34.000  
  20699882.328   -21614240.241 7                        51.000    20699878.004  
 -16804163.446 8                        40.000  
  22997598.467   -14157348.003 6                        47.000    22997594.574  
 -10990933.753 7                        31.000  
  20389883.538   -25966436.446 7                        52.000    20389880.705  
 -18684745.541 8                        41.000  
  23142329.380   -12326959.878 6                        43.000    23142327.123  
  -9402366.842 7                        30.000  
  20468441.004   -24626505.701 7                        50.000    20468437.953  
 -19150572.345 8                        41.000  
 11 05 11  5 32 30.0000000  0  9G11G12G14G17G20G23G24G31G32          0.000000000
  21304328.528   -20808276.605 7                        50.000    21304325.336  
 -15421962.830 8                        39.000  
  25631586.460    -2027635.097 2                        34.000    25631587.410  
  -1271879.365 5                        17.000  
  23806415.799    -8262211.789 5                        42.000    23806412.857  
  -5460507.439 6                        23.000  
  22578637.544   -14749348.767 7                        49.000    22578633.842  
 -11453739.260 8                        34.000  
  20696629.980   -21631332.142 7                        51.000    20696625.868  
 -16817481.806 8                        41.000  
  22991034.057   -14191846.020 6                        47.000    22991030.002  
 -11017815.310 7                        31.000  
  20391819.985   -25956259.622 7                        52.000    20391817.147  
 -18676815.553 8                        40.000  
  23138716.176   -12345948.136 6                        44.000    23138713.646  
  -9417162.852 7                        30.000  
  20469045.064   -24623331.428 7                        51.000    20469042.058  
 -19148098.887 8                        41.000  
 11 05 11  5 32 40.0000000  0  9G11G12G14G17G20G23G24G31G32          0.000000000
  21309003.793   -20783708.275 7                        51.000    21309000.731  
 -15402818.697 8                        39.000  
  25628968.551    -2041400.154 1                        33.000    25628967.766  
  -1282605.440 5                        15.000  
  23812503.350    -8230221.912 5                        41.000    23812500.149  
  -5435580.275 6                        23.000  
  22576350.558   -14761369.092 7                        48.000    22576346.351  
 -11463105.755 8                        34.000  
  20693385.013   -21648382.970 7                        51.000    20693380.999  
 -16830768.166 8                        40.000  
  22984473.799   -14226319.390 6                        47.000    22984469.675  
 -11044677.659 7                        31.000  
  20393766.723   -25946030.679 7                        51.000    20393763.725  
 -18668844.955 8                        40.000  
  23135113.125   -12364883.774 6                        45.000    23135110.515  
  -9431917.889 7                        30.000  
  20469657.250   -24620115.013 7                        50.000    20469653.975  
 -19145592.589 8                        41.000  
 11 05 11  5 32 50.0000000  0  9G11G12G14G17G20G23G24G31G32          0.000000000
  21313687.704   -20759094.824 7                        50.000    21313684.765  
 -15383639.398 8                        39.000  
  25626359.378    -2055110.136 3                        36.000    25626359.475  
  -1293288.588 5                        14.000  
  23818595.512    -8198205.813 5                        42.000    23818592.612  
  -5410632.697 6                        23.000  
  22574075.175   -14773326.057 7                        49.000    22574071.255  
 -11472422.871 8                        34.000  
  20690147.803   -21665392.915 7                        51.000    20690143.777  
 -16844022.662 8                        40.000  
  22977918.615   -14260768.307 6                        47.000    22977914.451  
 -11071520.945 7                        30.000  
  20395722.754   -25935749.989 7                        52.000    20395720.052  
 -18660834.041 8                        40.000  
  23131519.763   -12383766.997 6                        44.000    23131516.978  
  -9446632.074 7                        31.000  
  20470277.074   -24616856.796 7                        51.000    20470273.984  
 -19143053.716 8                        41.000  
 11 05 11  5 33  0.0000000  0  9G11G12G14G17G20G23G24G31G32          0.000000000
  21318380.095   -20734436.223 7                        50.000    21318376.717  
 -15364424.918 8                        39.000  
  25623759.865    -2068765.359 3                        36.000    25623761.216  
  -1303928.958 5                        15.000  
  23824692.546    -8166163.540 5                        40.000    23824689.783  
  -5385664.722 6                        23.000  
  22571811.538   -14785219.517 7                        49.000    22571807.932  
 -11481690.504 8                        34.000  
  20686919.298   -21682361.914 7                        51.000    20686914.986  
 -16857245.257 8                        40.000  
  22971367.876   -14295192.706 6                        47.000    22971363.794  
 -11098345.140 7                        31.000  
  20397689.216   -25925417.541 7                        52.000    20397686.315  
 -18652782.792 8                        40.000  
  23127935.919   -12402597.711 6                        44.000    23127933.583  
  -9461305.339 7                        30.000  
  20470905.165   -24613556.718 7                        51.000    20470902.029  
 -19140482.233 8                        40.000  
 11 05 11  5 33 10.0000000  0  9G11G12G14G17G20G23G24G31G32          0.000000000
  21323081.123   -20709732.462 7                        50.000    21323077.392  
 -15345175.252 8                        38.000  
  25621172.420    -2082365.504 3                        36.000    25621172.702  
  -1314526.462 5                        15.000  
  23830794.947    -8134095.143 5                        40.000    23830792.306  
  -5360676.386 6                        22.000  
  22569560.197   -14797049.380 7                        48.000    22569556.749  
 -11490908.577 8                        34.000  
  20683697.490   -21699289.866 7                        51.000    20683693.641  
 -16870435.867 8                        40.000  
  22964822.074   -14329592.419 6                        47.000    22964817.664  
 -11125150.082 7                        31.000  
  20399665.626   -25915033.268 7                        51.000    20399662.335  
 -18644691.163 8                        40.000  
  23124362.476   -12421375.641 6                        44.000    23124360.537  
  -9475937.485 7                        29.000  
  20471541.160   -24610214.676 7                        51.000    20471537.833  
 -19137878.040 8                        40.000  
 11 05 11  5 33 20.0000000  0  9G11G12G14G17G20G23G24G31G32          0.000000000
  21327790.830   -20684983.633 7                        51.000    21327787.455  
 -15325890.462 8                        38.000  
  25618595.600    -2095910.593 3                        37.000    25618595.397  
  -1325081.092 5                        16.000  
  23836903.190    -8102000.736 5                        41.000    23836899.248  
  -5335667.797 6                        22.000  
  22567321.046   -14808815.731 7                        48.000    22567317.841  
 -11500077.155 7                        33.000  
  20680484.322   -21716176.750 7                        51.000    20680480.190  
 -16883594.481 8                        40.000  
  22958280.834   -14363967.349 6                        47.000    22958276.455  
 -11151935.728 7                        30.000  
  20401651.321   -25904597.197 7                        52.000    20401648.553  
 -18636559.160 8                        41.000  
  23120799.136   -12440100.761 6                        45.000    23120796.983  
  -9490528.468 7                        31.000  
  20472185.094   -24606830.727 7                        51.000    20472181.916  
 -19135241.199 8                        40.000  
 11 05 11  5 33 30.0000000  0  9G11G12G14G17G20G23G24G31G32          0.000000000
  21332508.888   -20660189.758 7                        50.000    21332505.603  
 -15306570.574 8                        39.000  
  25616027.801    -2109400.593 3                        37.000    25616028.156  
  -1335592.859 5                        17.000  
  23843015.154    -8069880.427 5                        42.000    23843011.710  
  -5310638.996 6                        22.000  
  22565094.258   -14820518.413 7                        49.000    22565090.639  
 -11509196.123 8                        34.000  
  20677278.566   -21733022.541 7                        51.000    20677273.969  
 -16896721.067 8                        40.000  
  22951744.379   -14398317.376 6                        47.000    22951739.192  
 -11178701.968 7                        31.000  
  20403646.902   -25894109.338 7                        51.000    20403644.485  
 -18628386.816 8                        41.000  
  23117246.174   -12458773.002 6                        44.000    23117243.861  
  -9505078.244 7                        29.000  
  20472837.219   -24603404.922 7                        52.000    20472833.640  
 -19132571.745 8                        41.000  
 11 05 11  5 33 40.0000000  0  9G11G12G14G17G20G23G24G31G32          0.000000000
  21337235.607   -20635350.803 7                        50.000    21337231.884  
 -15287215.558 8                        39.000  
  25613471.797    -2122835.220 2                        34.000    25613471.241  
  -1346061.376 5                        16.000  
  23849132.027    -8037734.211 5                        41.000    23849128.556  
  -5285590.012 6                        22.000  
  22562879.483   -14832157.367 7                        48.000    22562876.131  
 -11518265.451 7                        33.000  
  20674081.102   -21749827.170 7                        51.000    20674076.546  
 -16909815.591 8                        40.000  
  22945211.856   -14432642.457 7                        48.000    22945207.828  
 -11205448.770 7                        31.000  
  20405652.759   -25883569.594 7                        52.000    20405650.282  
 -18620174.040 8                        40.000  
  23113702.949   -12477392.179 6                        45.000    23113700.948  
  -9519586.688 7                        30.000  
  20473496.941   -24599937.233 7                        52.000    20473493.464  
 -19129869.654 8                        41.000  
 11 05 11  5 33 50.0000000  0  9G11G12G14G17G20G23G24G31G32          0.000000000
  21341970.612   -20610466.854 7                        51.000    21341967.606  
 -15267825.483 8                        40.000  
  25610925.514    -2136214.548 1                        33.000                  
                                                
  23855254.267    -8005562.359 5                        42.000    23855251.129  
  -5260521.071 6                        22.000  
  22560676.488   -14843732.476 7                        48.000    22560673.844  
 -11527285.017 8                        35.000  
  20670890.649   -21766590.606 7                        51.000    20670886.673  
 -16922878.005 8                        40.000  
  22938685.141   -14466942.493 6                        47.000    22938680.398  
 -11232176.052 7                        30.000  
  20407668.132   -25872977.981 7                        51.000    20407665.785  
 -18611920.833 8                        41.000  
  23110169.786   -12495958.300 6                        44.000    23110167.638  
  -9534053.772 7                        30.000  
  20474164.885   -24596427.666 7                        51.000    20474161.080  
 -19127134.926 8                        41.000  
 11 05 11  5 34  0.0000000  0  9G11G12G14G17G20G23G24G31G32          0.000000000
  21346714.817   -20585538.000 7                        51.000    21346711.489  
 -15248400.414 8                        39.000  
  25608390.363    -2149538.498 1                        33.000                  
                                                
  23861381.592    -7973364.786 5                        41.000    23861377.991  
  -5235432.093 6                        21.000  
  22558486.002   -14855243.789 7                        49.000    22558482.979  
 -11536254.858 8                        34.000  
  20667708.771   -21783312.793 7                        51.000    20667704.273  
 -16935908.278 8                        41.000  
  22932163.031   -14501217.330 6                        47.000    22932158.510  
 -11258883.705 7                        31.000  
  20409693.099   -25862334.513 7                        51.000    20409691.238  
 -18603627.230 8                        41.000  
  23106647.519   -12514471.210 6                        44.000    23106645.016  
  -9548479.405 7                        29.000  
  20474840.752   -24592876.128 7                        51.000    20474837.500  
 -19124367.494 8                        41.000  
 11 05 11  5 34 10.0000000  0  9G11G12G14G17G20G23G24G31G32          0.000000000
  21351467.053   -20560564.575 7                        51.000    21351463.459  
 -15228940.624 8                        39.000  
  25605863.328    -2162807.148 1                        31.000                  
                                                
  23867513.130    -7941141.826 5                        41.000    23867510.190  
  -5210323.285 6                        21.000  
  22556307.454   -14866691.476 7                        48.000    22556304.501  
 -11545175.147 8                        34.000  
  20664534.340   -21799993.999 7                        51.000    20664530.256  
 -16948906.626 8                        40.000  
  22925644.986   -14535467.229 6                        46.000    22925640.760  
 -11285571.917 7                        30.000  
  20411728.420   -25851639.475 7                        52.000    20411726.273  
 -18595293.441 8                        41.000  
  23103134.536   -12532931.023 6                        44.000    23103131.965  
  -9562863.665 7                        30.000  
  20475524.275   -24589283.079 7                        51.000    20475520.841  
 -19121567.724 8                        40.000  
 11 05 11  5 34 20.0000000  0  9G11G12G14G17G20G23G24G31G32          0.000000000
  21356227.768   -20535546.322 7                        52.000    21356224.209  
 -15209445.892 8                        39.000  
  25603351.031    -2176019.977 1                        33.000                  
                                                
  23873649.980    -7908893.159 5                        41.000    23873646.680  
  -5185194.487 6                        23.000  
  22554141.840   -14878075.125 7                        48.000    22554138.252  
 -11554045.529 7                        33.000  
  20661367.734   -21816633.838 7                        51.000    20661363.541  
 -16961872.727 8                        40.000  
  22919132.559   -14569691.676 7                        48.000    22919128.185  
 -11312240.308 7                        31.000  
  20413773.444   -25840892.536 7                        52.000    20413771.142  
 -18586919.219 8                        40.000  
  23099631.852   -12551337.344 6                        45.000    23099628.999  
  -9577206.249 7                        29.000  
  20476215.968   -24585648.147 7                        51.000    20476212.740  
 -19118735.308 8                        40.000  
 11 05 11  5 34 30.0000000  0  9G11G12G14G17G20G23G24G31G32          0.000000000
  21360997.234   -20510484.037 7                        51.000    21360993.782  
 -15189916.850 8                        40.000  
  25600848.072    -2189177.907 2                        35.000                  
                                                
  23879792.007    -7876619.581 5                        42.000    23879787.960  
  -5160046.283 6                        22.000  
  22551987.531   -14889395.391 7                        48.000    22551984.064  
 -11562866.516 7                        33.000  
  20658209.145   -21833232.969 7                        51.000    20658204.990  
 -16974807.105 8                        41.000  
  22912624.362   -14603891.263 6                        47.000    22912620.260  
 -11338889.323 7                        31.000  
  20415828.635   -25830094.438 7                        51.000    20415826.483  
 -18578505.132 8                        40.000  
  23096139.354   -12569690.808 6                        45.000    23096136.688  
  -9591507.633 7                        30.000  
  20476915.603   -24581971.991 7                        50.000    20476912.351  
 -19115870.778 8                        40.000  
 11 05 11  5 34 40.0000000  0  9G11G12G14G17G20G23G24G31G32          0.000000000
  21365774.936   -20485376.864 7                        52.000    21365771.643  
 -15170352.830 8                        39.000  
  25598354.704    -2202280.124 2                        35.000                  
                                                
  23885937.917    -7844320.508 5                        41.000    23885934.413  
  -5134878.194 6                        22.000  
  22549845.491   -14900651.467 7                        48.000    22549842.200  
 -11571637.481 8                        34.000  
  20655058.481   -21849790.563 7                        50.000    20655054.330  
 -16987709.130 8                        41.000  
  22906120.620   -14638065.265 6                        47.000    22906117.623  
 -11365518.395 7                        31.000  
  20417893.391   -25819244.394 7                        52.000    20417890.945  
 -18570050.562 8                        40.000  
  23092657.099   -12587990.579 6                        46.000    23092654.750  
  -9605767.175 7                        30.000  
  20477623.136   -24578253.895 7                        51.000    20477619.616  
 -19112973.555 8                        40.000  
 11 05 11  5 34 50.0000000  0  9G11G12G14G17G20G23G24G31G32          0.000000000
  21370560.742   -20460224.985 7                        51.000    21370557.375  
 -15150753.983 8                        39.000  
  25595872.139    -2215326.519 1                        33.000                  
                                                
  23892088.585    -7811996.000 5                        41.000    23892085.891  
  -5109690.296 6                        23.000  
  22547715.830   -14911843.388 7                        48.000    22547712.608  
 -11580358.462 7                        33.000  
  20651915.119   -21866306.678 7                        51.000    20651911.327  
 -17000578.834 8                        41.000  
  22899623.311   -14672213.702 6                        45.000    22899618.979  
 -11392127.550 7                        30.000  
  20419967.973   -25808342.476 7                        52.000    20419965.626  
 -18561555.568 8                        40.000  
  23089185.165   -12606236.579 6                        46.000    23089182.161  
  -9619984.811 7                        30.000  
  20478338.700   -24574494.016 7                        52.000    20478335.215  
 -19110043.782 8                        40.000  
 11 05 11  5 35  0.0000000  0  9G11G12G14G17G20G23G24G31G32          0.000000000
  21375355.640   -20435029.006 7                        51.000    21375352.141  
 -15131120.769 8                        39.000  
  25593399.576    -2228317.583 3                        37.000                  
                                                
  23898244.893    -7779646.712 5                        42.000    23898241.951  
  -5084483.072 6                        22.000  
  22545598.141   -14922971.514 7                        48.000    22545594.647  
 -11589029.738 7                        33.000  
  20648780.238   -21882781.787 7                        51.000    20648776.468  
 -17013416.579 8                        41.000  
  22893129.336   -14706336.946 6                        46.000    22893125.533  
 -11418717.069 7                        30.000  
  20422052.192   -25797389.181 7                        52.000    20422049.864  
 -18553020.543 8                        40.000  
  23085723.290   -12624429.213 6                        46.000    23085720.283  
  -9634160.870 7                        30.000  
  20479061.985   -24570692.756 7                        51.000    20479058.529  
 -19107081.771 8                        41.000  
 11 05 11  5 35 10.0000000  0  9G11G12G14G17G20G23G24G31G32          0.000000000
  21380158.599   -20409788.458 7                        51.000    21380155.371  
 -15111452.827 8                        39.000  
  25590938.521    -2241252.759 3                        37.000                  
                                                
  23904405.725    -7747272.242 5                        41.000    23904402.691  
  -5059256.256 6                        22.000  
  22543492.947   -14934035.454 7                        48.000    22543489.060  
 -11597650.984 7                        33.000  
  20645653.142   -21899215.468 7                        51.000    20645649.287  
 -17026222.033 8                        41.000  
  22886641.221   -14740434.492 6                        46.000    22886636.659  
 -11445286.562 7                        31.000  
  20424146.584   -25786384.032 7                        52.000    20424143.807  
 -18544445.099 8                        40.000  
  23082271.815   -12642567.922 6                        45.000    23082268.350  
  -9648294.920 7                        30.000  
  20479793.017   -24566849.728 7                        51.000    20479789.807  
 -19104087.200 8                        41.000  
 11 05 11  5 35 20.0000000  0  9G11G12G14G17G20G23G24G31G32          0.000000000
  21384970.523   -20384503.701 7                        51.000    21384966.829  
 -15091750.431 8                        39.000  
  25588486.561    -2254132.115 4                        38.000                  
                                                
  23910570.143    -7714872.776 5                        41.000    23910567.795  
  -5034009.958 6                        22.000  
  22541399.401   -14945035.204 7                        48.000    22541395.952  
 -11606222.218 8                        34.000  
  20642533.570   -21915607.705 7                        51.000    20642529.946  
 -17038995.201 8                        41.000  
  22880157.155   -14774506.351 6                        46.000    22880153.046  
 -11471836.051 7                        31.000  
  20426250.533   -25775327.173 7                        52.000    20426248.362  
 -18535829.376 8                        41.000  
  23078829.813   -12660652.785 6                        45.000    23078827.033  
  -9662387.004 7                        31.000  
  20480532.435   -24562965.084 7                        51.000    20480529.259  
 -19101060.211 8                        41.000  
 11 05 11  5 35 30.0000000  0  9G11G12G14G17G20G23G24G31G32          0.000000000
  21389790.589   -20359174.426 7                        51.000    21389787.155  
 -15072013.352 8                        39.000  
  25586047.578    -2266955.309 4                        39.000                  
                                                
  23916741.208    -7682448.240 5                        40.000    23916737.966  
  -5008744.118 6                        23.000  
  22539318.615   -14955970.578 7                        49.000    22539314.882  
 -11614743.273 7                        33.000  
  20639422.671   -21931958.253 7                        52.000    20639418.604  
 -17051735.877 8                        41.000  
  22873678.734   -14808552.299 6                        46.000    22873674.132  
 -11498365.352 7                        31.000  
  20428364.387   -25764218.431 7                        52.000    20428361.819  
 -18527173.220 8                        41.000  
  23075399.007   -12678683.553 6                        46.000    23075395.970  
  -9676436.940 7                        30.000  
  20481279.599   -24559038.665 7                        51.000    20481276.053  
 -19098000.658 8                        41.000  
 11 05 11  5 35 40.0000000  0  9G11G12G14G17G20G23G24G31G32          0.000000000
  21394619.016   -20333801.141 7                        52.000    21394615.547  
 -15052241.980 8                        38.000  
  25583618.463    -2279722.978 4                        39.000                  
                                                
  23922916.012    -7649999.180 5                        40.000    23922912.878  
  -4983459.192 6                        23.000  
  22537249.845   -14966841.945 7                        48.000    22537245.964  
 -11623214.481 7                        33.000  
  20636318.515   -21948267.520 7                        51.000    20636314.547  
 -17064444.397 8                        41.000  
  22867204.266   -14842572.553 6                        46.000    22867200.593  
 -11524874.615 7                        30.000  
  20430488.133   -25753058.216 7                        51.000    20430485.379  
 -18518476.964 8                        41.000  
  23071978.740   -12696660.463 6                        45.000    23071975.310  
  -9690444.904 7                        31.000  
  20482034.676   -24555070.923 7                        50.000    20482031.562  
 -19094908.924 8                        40.000  
 11 05 11  5 35 50.0000000  0  9G11G12G14G17G20G23G24G31G32          0.000000000
  21399455.665   -20308383.705 7                        51.000    21399452.002  
 -15032436.195 8                        39.000  
  25581198.570    -2292434.667 4                        39.000                  
                                                
  23929095.625    -7617525.513 5                        41.000    23929092.785  
  -4958155.048 6                        22.000  
  22535193.252   -14977649.080 7                        48.000    22535188.870  
 -11631635.630 7                        33.000  
  20633223.047   -21964535.332 7                        51.000    20633219.433  
 -17077120.609 8                        41.000  
  22860735.297   -14876566.972 6                        46.000    22860731.789  
 -11551363.753 7                        30.000  
  20432621.641   -25741846.429 7                        52.000    20432619.229  
 -18509740.512 8                        41.000  
  23068567.072   -12714583.316 6                        45.000    23068564.223  
  -9704410.755 7                        31.000  
  20482797.277   -24551061.690 7                        51.000    20482794.530  
 -19091784.845 8                        41.000  
 11 05 11  5 36  0.0000000  0  9G11G12G14G17G20G23G24G31G32          0.000000000
  21404300.352   -20282922.173 7                        52.000    21404297.127  
 -15012596.054 8                        38.000  
  25578791.358    -2305090.323 5                        41.000    25578787.324  
  -1076000.19216                        20.000  
  23935280.076    -7585027.210 5                        41.000    23935276.944  
  -4932831.736 6                        21.000  
  22533149.365   -14988391.821 7                        48.000    22533145.061  
 -11640006.584 8                        34.000  
  20630135.218   -21980761.825 7                        51.000    20630131.223  
 -17089764.626 8                        41.000  
  22854271.486   -14910535.393 6                        46.000    22854267.788  
 -11577832.630 7                        31.000  
  20434765.176   -25730583.038 7                        52.000    20434762.637  
 -18500963.861 8                        40.000  
  23065166.880   -12732451.971 6                        45.000    23065163.906  
  -9718334.371 7                        31.000  
  20483568.469   -24547010.923 7                        51.000    20483565.491  
 -19088628.407 8                        40.000  
 11 05 11  5 36 10.0000000  0  9G11G12G14G17G20G23G24G31G32          0.000000000
  21409154.321   -20257416.971 7                        52.000    21409151.166  
 -14992721.885 8                        39.000  
  25576393.981    -2317690.219 6                        43.000    25576389.256  
  -1085818.252 6                        19.000  
  23941468.444    -7552504.737 5                        41.000    23941465.200  
  -4907489.560 6                        21.000  
  22531117.385   -14999070.310 7                        48.000    22531112.982  
 -11648327.475 7                        33.000  
  20627055.320   -21996946.988 7                        51.000    20627051.448  
 -17102376.439 8                        41.000  
  22847812.554   -14944477.963 6                        45.000    22847808.897  
 -11604281.365 7                        30.000  
  20436918.166   -25719268.363 8                        53.000    20436915.888  
 -18492147.240 8                        41.000  
  23061777.312   -12750266.639 6                        45.000    23061773.857  
  -9732215.909 7                        30.000  
  20484347.074   -24542918.979 7                        51.000    20484344.005  
 -19085439.883 8                        40.000  
 11 05 11  5 36 20.0000000  0  9G11G12G14G17G20G23G24G31G32          0.000000000
  21414016.000   -20231867.728 7                        52.000    21414012.763  
 -14972813.397 8                        39.000  
  25574007.127    -2330233.758 6                        43.000    25574003.089  
  -1095592.455 6                        19.000  
  23947661.990    -7519957.728 5                        41.000    23947658.521  
  -4882128.272 6                        21.000  
  22529097.643   -15009684.403 7                        49.000    22529093.536  
 -11656598.196 8                        34.000  
  20623983.370   -22013090.368 7                        51.000    20623979.281  
 -17114955.695 8                        41.000  
  22841358.716   -14978394.275 6                        46.000    22841355.021  
 -11630709.649 7                        31.000  
  20439081.333   -25707901.977 7                        52.000    20439078.313  
 -18483290.321 8                        40.000  
  23058397.117   -12768026.764 6                        44.000    23058393.853  
  -9746054.964 7                        30.000  
  20485133.701   -24538785.408 7                        51.000    20485130.834  
 -19082218.927 8                        40.000  
