     2.11           OBSERVATION DATA    M (MIXED)           RINEX VERSION / TYPE
VRS3Net             Reference Data Shop 19-MAY-11 14:57     PGM / RUN BY / DATE 
WROC                                                        MARKER NAME         
WROC                                                        MARKER NUMBER       
Trimble Navigation  Trimble Navigation Limited              OBSERVER / AGENCY   
                    LEICA GRX1200GGPRO                      REC # / TYPE / VERS 
200042              LEIAT504GG      LEIS                    ANT # / TYPE        
  3835751.6368  1177249.7589  4941605.0673                  APPROX POSITION XYZ 
        0.0000        0.0000        0.0000                  ANTENNA: DELTA H/E/N
     1     1     0                                          WAVELENGTH FACT L1/2
     8    C1    L1    D1    S1    P2    L2    D2    S2      # / TYPES OF OBSERV 
    10.000                                                  INTERVAL            
     0                                                      RCV CLOCK OFFS APPL 
    15                                                      LEAP SECONDS        
2011  05    11    05    00       00.0000000     GPS         TIME OF FIRST OBS   
                                                            END OF HEADER       
 11 05 11  5  0  0.0000000  0 20G11G14G17G19G20G22G23G24G28G31G32R01 0.000000000
                                R07R08R09R10R16R22R23R24    
  20511491.504   107788639.89517                        51.250    20511489.544  
  83991154.40119                        49.250  
  22848453.148   120069445.00617                        47.250    22848451.808  
  93560603.61718                        38.750  
  23316462.986   122528834.47316                        46.000    23316461.746  
  95477016.34418                        39.250  
  24458415.538   128529836.30916                        44.000    24458415.118  
 100153109.77418                        37.250  
  21422361.718   112575293.50017                        50.500    21422359.998  
  87721006.05519                        45.500  
  25518807.050   134102230.37015                        40.000    25518806.690  
 104495241.06417                        30.250  
  24185211.740   127094142.78916                        45.750    24185210.360  
  99034386.80318                        36.500  
  20191426.746   106106692.68817                        51.500    20191426.406  
  82680553.24719                        49.750  
  25186102.272   132353846.31115                        40.250    25186101.392  
 103132852.44818                        33.500  
  23995929.160   126099486.21816                        44.750    23995929.900  
  98259360.12118                        37.250  
  20489921.724   107675293.00717                        51.250    20489920.664  
  83902837.08919                        49.000  
  21845129.936   116774753.58417                        48.000    21845136.836  
  90824835.63618                        38.750  
  20846589.524   111593470.09018                        49.250    20846589.844  
  86794935.75519                        44.000  
  19270615.252   103193281.86618                        51.500    19270618.632  
  80261485.69619                        50.250  
  22652737.692   120964389.09317                        46.250    22652746.992  
  94083465.45619                        42.750  
  24409011.380   130113769.30115                        40.250    24409025.620  
 101199664.31217                        31.000  
  22988205.708   122798894.37117                        45.250    22988213.868  
  95510292.93418                        41.000  
  23088134.908   123246033.42216                        44.500    23088143.608  
  95858070.57119                        41.500  
  19914858.968   106531071.71718                        51.750    19914866.248  
  82857521.47019                        49.250  
  20721591.064   110807663.69618                        50.750    20721596.424  
  86183774.99619                        47.500  
 11 05 11  5  0 10.0000000  0 20G11G14G17G19G20G22G23G24G28G31G32R01 0.000000000
                                R07R08R09R10R16R22R23R24    
  20514132.244   107802516.940 7                        51.250    20514130.284  
  84001967.673 9                        49.500  
  22853358.988   120095225.382 7                        47.250    22853357.668  
  93580692.208 8                        39.000  
  23311906.906   122504892.040 6                        46.250    23311905.606  
  95458359.909 8                        40.250  
  24465546.158   128567307.773 6                        44.000    24465545.758  
 100182308.268 8                        37.250  
  21417856.898   112551620.464 7                        50.500    21417855.178  
  87702559.533 9                        45.000  
  25525063.190   134135106.555 5                        41.000    25525062.810  
 104520858.872 8                        34.500  
  24178079.260   127056661.401 6                        45.500    24178077.860  
  99005180.543 8                        36.000  
  20191342.146   106106248.112 7                        51.500    20191341.826  
  82680206.822 9                        49.750  
  25190414.632   132376507.868 5                        39.750    25190413.792  
 103150510.850 8                        34.500  
  23990887.700   126072993.288 6                        44.250    23990888.440  
  98238716.316 8                        38.000  
  20489061.104   107670770.319 7                        51.250    20489060.024  
  83899312.916 9                        49.000  
  21839140.516   116742736.739 7                        47.500    21839147.436  
  90799933.662 8                        38.750  
  20851889.144   111621839.397 8                        49.500    20851889.484  
  86817000.766 9                        44.000  
  19270443.412   103192361.579 8                        51.250    19270446.792  
  80260769.915 9                        50.250  
  22648351.032   120940964.621 7                        46.000    22648360.352  
  94065246.449 9                        42.500  
  24401243.980   130072364.883 5                        39.250    24401258.220  
 101167460.921 7                        30.250  
  22990126.488   122809154.897 6                        45.000    22990134.668  
  95518273.312 8                        40.750  
  23096571.428   123291067.962 6                        44.000    23096580.128  
  95893097.373 9                        41.250  
  19918492.168   106550506.895 8                        51.500    19918499.448  
  82872637.710 9                        49.250  
  20717136.764   110783844.598 8                        50.750    20717142.104  
  86165249.030 9                        47.500  
 11 05 11  5  0 20.0000000  0 20G11G14G17G19G20G22G23G24G28G31G32R01 0.000000000
                                R07R08R09R10R16R22R23R24    
  20516783.564   107816449.621 7                        51.250    20516781.584  
  84012824.295 9                        49.250  
  22858273.048   120121048.929 6                        47.000    22858271.728  
  93600814.435 8                        38.500  
  23307360.146   122480998.752 6                        46.250    23307358.846  
  95439741.777 8                        40.000  
  24472678.118   128604786.287 6                        44.000    24472677.738  
 100211512.257 8                        35.500  
  21413358.678   112527982.045 7                        50.250    21413356.938  
  87684139.988 9                        45.250  
  25531319.350   134167982.858 5                        41.000    25531318.970  
 104546476.730 8                        34.000  
  24170948.940   127019191.327 6                        45.500    24170947.520  
  98975983.095 8                        35.000  
  20191267.106   106105853.753 7                        51.500    20191266.786  
  82679899.523 9                        49.750  
  25194732.512   132399198.334 5                        39.750    25194731.672  
 103168191.712 7                        33.000  
  23985852.620   126046533.982 6                        45.000    23985853.400  
  98218098.726 8                        37.500  
  20488209.004   107666292.566 7                        51.250    20488207.944  
  83895823.763 9                        49.000  
  21833157.216   116710752.531 7                        48.000    21833164.156  
  90775057.060 8                        38.500  
  20857194.504   111650239.290 7                        49.000    20857194.804  
  86839089.559 9                        43.750  
  19270282.412   103191499.421 8                        51.500    19270285.792  
  80260099.345 9                        50.250  
  22643977.592   120917610.834 7                        46.250    22643986.932  
  94047082.409 9                        42.500  
  24393477.840   130030967.274 4                        38.750    24393492.100  
 101135262.842 7                        30.750  
  22992063.508   122819502.299 7                        45.500    22992071.708  
  95526321.284 8                        40.500  
  23105011.208   123336119.841 6                        43.750    23105019.888  
  95928137.686 8                        41.000  
  19922141.088   106570026.138 8                        51.750    19922148.388  
  82887819.328 9                        49.250  
  20712696.464   110760100.310 8                        51.000    20712701.804  
  86146781.257 9                        47.500  
 11 05 11  5  0 30.0000000  0 20G11G14G17G19G20G22G23G24G28G31G32R01 0.000000000
                                R07R08R09R10R16R22R23R24    
  20519445.564   107830438.463 7                        51.250    20519443.584  
  84023724.679 9                        49.250  
  22863195.428   120146916.181 6                        47.000    22863194.108  
  93620970.718 8                        40.000  
  23302822.866   122457155.295 6                        46.750    23302821.566  
  95421162.454 8                        40.250  
  24479811.518   128642272.323 6                        44.000    24479811.158  
 100240722.121 8                        37.250  
  21408867.138   112504378.872 7                        50.250    21408865.398  
  87665747.916 9                        45.750  
  25537575.610   134200859.692 5                        40.750    25537575.250  
 104572095.018 8                        34.000  
  24163820.880   126981733.140 6                        45.000    24163819.460  
  98946794.920 8                        36.250  
  20191201.746   106105510.268 7                        51.500    20191201.426  
  82679631.867 9                        49.750  
  25199055.972   132421918.151 5                        40.250    25199055.172  
 103185895.455 7                        29.000  
  23980824.102   126020109.018 6                        44.500    23980824.882  
  98197507.849 8                        37.750  
  20487365.604   107661860.377 7                        51.250    20487364.524  
  83892370.109 9                        49.000  
  21827180.096   116678801.410 7                        47.750    21827187.076  
  90750206.203 8                        38.500  
  20862505.564   111678669.839 8                        49.250    20862505.904  
  86861202.198 9                        43.750  
  19270132.432   103190696.263 8                        51.500    19270135.812  
  80259474.669 9                        50.250  
  22639617.532   120894328.437 7                        46.250    22639626.892  
  94028973.922 9                        42.250  
  24385713.080   129989577.078 5                        40.000    24385727.340  
 101103070.521 7                        30.750  
  22994016.908   122829937.193 6                        45.000    22994025.128  
  95534437.298 8                        40.750  
  23113454.328   123381189.575 6                        43.250    23113463.008  
  95963191.891 9                        41.250  
  19925805.808   106589629.847 8                        51.750    19925813.108  
  82903066.647 9                        49.250  
  20708270.344   110736431.828 8                        50.500    20708275.684  
  86128372.423 9                        47.500  
 11 05 11  5  0 40.0000000  0 20G11G14G17G19G20G22G23G24G28G31G32R01 0.000000000
                                R07R08R09R10R16R22R23R24    
  20522117.684   107844480.438 7                        51.250    20522115.704  
  84034666.469 9                        49.250  
  22868125.548   120172824.060 6                        47.000    22868124.228  
  93641158.665 8                        39.250  
  23298294.506   122433358.757 6                        46.750    23298293.226  
  95402619.711 8                        39.750  
  24486945.778   128679762.826 6                        43.750    24486945.398  
 100269935.457 8                        36.750  
  21404381.778   112480808.041 7                        50.000    21404380.018  
  87647381.036 9                        45.750  
  25543831.470   134233734.293 5                        40.250    25543831.110  
 104597711.573 8                        35.500  
  24156694.520   126944283.931 6                        45.500    24156693.080  
  98917613.732 8                        36.500  
  20191145.526   106105214.704 7                        51.500    20191145.186  
  82679401.551 9                        49.750  
  25203384.412   132444664.231 5                        40.250    25203383.652  
 103203619.667 7                        26.750  
  23975801.562   125993715.531 6                        44.250    23975802.342  
  98176941.524 8                        38.500  
  20486530.304   107657470.841 7                        51.250    20486529.224  
  83888949.691 9                        49.250  
  21821208.636   116646880.630 7                        47.500    21821215.656  
  90725378.938 8                        38.750  
  20867821.804   111707128.174 7                        49.000    20867822.164  
  86883336.442 9                        43.750  
  19269992.872   103189948.926 8                        51.500    19269996.252  
  80258893.405 9                        50.250  
  22635270.292   120871114.533 7                        46.250    22635279.672  
  94010918.676 9                        42.000  
  24377949.220   129948191.530 5                        39.500    24377963.460  
 101070881.809 7                        29.500  
  22995986.108   122840456.448 7                        45.750    22995994.308  
  95542618.930 8                        40.750  
  23121900.228   123426274.133 6                        44.000    23121908.908  
  95998257.596 9                        41.500  
  19929485.768   106609315.087 8                        51.750    19929493.068  
  82918377.375 9                        49.250  
  20703857.824   110712836.114 8                        50.500    20703863.164  
  86110020.209 9                        47.500  
 11 05 11  5  0 50.0000000  0 20G11G14G17G19G20G22G23G24G28G31G32R01 0.000000000
                                R07R08R09R10R16R22R23R24    
  20524800.444   107858578.295 7                        51.250    20524798.464  
  84045651.802 9                        49.250  
  22873063.908   120198775.257 6                        47.000    22873062.588  
  93661380.365 8                        38.500  
  23293775.646   122409612.006 6                        46.500    23293774.366  
  95384115.747 8                        40.500  
  24494081.418   128717260.536 6                        43.250    24494081.018  
 100299154.401 8                        35.000  
  21399903.058   112457272.240 7                        50.250    21399901.298  
  87629041.455 9                        45.000  
  25550087.370   134266609.245 5                        40.250    25550087.010  
 104623328.385 8                        33.250  
  24149570.400   126906846.541 6                        46.000    24149568.980  
  98888441.742 8                        36.000  
  20191098.926   106104969.803 7                        51.500    20191098.586  
  82679210.719 9                        49.750  
  25207718.412   132467439.252 5                        40.000    25207717.612  
 103221366.420 7                        32.750  
  23970785.542   125967356.326 6                        44.500    23970786.342  
  98156401.912 8                        39.250  
  20485703.624   107653126.616 7                        51.250    20485702.544  
  83885564.581 9                        49.000  
  21815243.396   116614992.966 7                        47.750    21815250.396  
  90700577.426 8                        38.500  
  20873143.824   111735617.369 7                        49.000    20873144.184  
  86905494.700 9                        43.500  
  19269864.292   103189260.381 8                        51.500    19269867.672  
  80258357.872 9                        50.250  
  22630936.432   120847972.059 7                        46.500    22630945.812  
  93992918.984 9                        42.000  
  24370186.800   129906813.631 5                        40.750    24370200.960  
 101038699.034 7                        30.750  
  22997971.608   122851062.763 7                        45.250    22997979.808  
  95550868.287 9                        41.750  
  23130349.368   123471376.051 6                        43.750    23130358.088  
  96033336.826 8                        41.000  
  19933181.468   106629084.534 8                        51.750    19933188.788  
  82933753.595 9                        49.250  
  20699459.524   110689316.358 8                        50.750    20699464.824  
  86091727.072 9                        47.500  
 11 05 11  5  1  0.0000000  0 20G11G14G17G19G20G22G23G24G28G31G32R01 0.000000000
                                R07R08R09R10R16R22R23R24    
  20527493.884   107872732.341 7                        51.250    20527491.904  
  84056680.917 9                        49.250  
  22878010.548   120224769.997 6                        47.000    22878009.208  
  93681635.986 8                        38.000  
  23289266.346   122385915.462 6                        46.750    23289265.026  
  95365650.908 8                        39.250  
  24501218.458   128754765.656 6                        43.000    24501218.038  
 100328379.102 8                        37.750  
  21395431.118   112433771.942 7                        50.250    21395429.338  
  87610729.533 9                        45.000  
  25556343.450   134299484.960 4                        38.250    25556343.090  
 104648945.855 7                        29.750  
  24142448.620   126869421.410 6                        45.750    24142447.180  
  98859279.315 8                        34.500  
  20191062.046   106104775.913 7                        51.500    20191061.686  
  82679059.630 9                        49.750  
  25212057.972   132490243.497 5                        40.500    25212057.132  
 103239135.945 8                        33.250  
  23965776.142   125941031.872 6                        44.500    23965776.962  
  98135889.386 8                        39.250  
  20484885.624   107648828.031 7                        51.250    20484884.544  
  83882215.036 9                        49.000  
  21809284.416   116583138.819 7                        47.750    21809291.396  
  90675801.990 8                        38.750  
  20878471.564   111764137.213 7                        49.000    20878471.964  
  86927676.783 9                        43.500  
  19269746.732   103188630.788 8                        51.500    19269750.092  
  80257868.184 9                        50.250  
  22626616.052   120824901.551 7                        46.500    22626625.432  
  93974975.292 9                        42.000  
  24362425.900   129865443.947 5                        40.500    24362440.040  
 101006522.689 7                        31.250  
  22999973.488   122861756.522 6                        44.750    22999981.708  
  95559185.656 9                        41.750  
  23138801.828   123516495.566 6                        43.750    23138810.548  
  96068429.746 8                        41.000  
  19936892.948   106648938.393 8                        51.750    19936900.268  
  82949195.477 9                        49.250  
  20695075.424   110665872.634 8                        50.750    20695080.724  
  86073493.065 9                        47.500  
 11 05 11  5  1 10.0000000  0 20G11G14G17G19G20G22G23G24G28G31G32R01 0.000000000
                                R07R08R09R10R16R22R23R24    
  20530197.404   107886939.298 7                        51.250    20530195.404  
  84067751.263 9                        49.250  
  22882964.828   120250804.903 6                        47.000    22882963.488  
  93701922.916 8                        39.000  
  23284765.966   122362265.839 6                        47.000    23284764.626  
  95347222.624 8                        40.250  
  24508356.238   128792274.720 6                        43.500    24508355.818  
 100357606.913 8                        37.250  
  21390965.278   112410303.821 7                        50.250    21390963.518  
  87592442.695 9                        45.750  
  25562599.010   134332358.087 4                        39.000    25562598.650  
 104674561.203 8                        34.000  
  24135328.560   126832005.321 6                        45.750    24135327.160  
  98830123.966 8                        35.250  
  20191034.246   106104629.805 7                        51.500    20191033.886  
  82678945.773 9                        49.750  
  25216402.452   132513073.570 5                        40.250    25216401.612  
 103256925.627 7                        32.250  
  23960772.742   125914739.001 6                        44.750    23960773.582  
  98115401.459 8                        37.000  
  20484075.704   107644571.836 7                        51.250    20484074.624  
  83878898.518 9                        49.000  
  21803331.076   116551314.837 7                        47.500    21803338.036  
  90651050.006 8                        38.500  
  20883804.444   111792684.602 7                        49.000    20883804.864  
  86949880.309 9                        43.500  
  19269639.532   103188056.715 8                        51.500    19269642.872  
  80257421.690 9                        50.250  
  22622308.532   120801899.647 7                        46.750    22622317.872  
  93957084.923 9                        41.750  
  24354665.940   129824079.193 6                        41.250    24354680.020  
 100974350.151 7                        32.000  
  23001991.088   122872534.342 6                        45.000    23001999.388  
  95567568.397 9                        41.500  
  23147256.908   123561629.157 6                        44.000    23147265.628  
  96103533.598 9                        41.500  
  19940619.588   106668873.273 8                        51.750    19940626.888  
  82964700.365 9                        49.250  
  20690705.004   110642501.973 8                        50.750    20690710.284  
  86055315.882 9                        47.500  
 11 05 11  5  1 20.0000000  0 20G11G14G17G19G20G22G23G24G28G31G32R01 0.000000000
                                R07R08R09R10R16R22R23R24    
  20532911.464   107901201.756 7                        51.250    20532909.464  
  84078864.854 9                        49.500  
  22887927.208   120276882.462 6                        46.750    22887925.888  
  93722243.079 8                        39.000  
  23280275.066   122338665.927 6                        47.000    23280273.666  
  95328833.076 8                        39.750  
  24515495.278   128829790.345 6                        43.250    24515494.818  
 100386839.816 8                        37.750  
  21386506.078   112386870.630 7                        50.250    21386504.318  
  87574183.072 9                        45.500  
  25568854.590   134365231.292 4                        37.750    25568854.270  
 104700176.739 7                        28.250  
  24128210.760   126794601.069 6                        46.000    24128209.360  
  98800977.814 8                        36.500  
  20191016.046   106104534.111 7                        51.500    20191015.686  
  82678871.198 9                        49.750  
  25220752.332   132535932.073 5                        39.500    25220751.492  
 103274737.360 7                        32.000  
  23955775.882   125888480.493 6                        44.500    23955776.722  
  98094940.308 8                        37.750  
  20483274.344   107640360.640 7                        51.250    20483273.264  
  83875617.063 9                        49.250  
  21797383.876   116519523.797 7                        47.500    21797390.816  
  90626323.654 8                        38.500  
  20889142.964   111821262.179 7                        49.000    20889143.424  
  86972107.297 9                        43.250  
  19269543.212   103187540.859 8                        51.250    19269546.552  
  80257020.462 9                        50.250  
  22618014.372   120778969.276 7                        47.000    22618023.732  
  93939250.217 9                        42.000  
  24346907.420   129782722.188 5                        40.250    24346921.480  
 100942183.634 7                        31.250  
  23004024.908   122883398.790 6                        44.500    23004033.288  
  95576018.536 9                        41.250  
  23155715.128   123606779.501 6                        44.000    23155723.868  
  96138650.487 9                        41.750  
  19944361.828   106688891.768 8                        51.750    19944369.148  
  82980270.295 9                        49.250  
  20686348.744   110619207.034 8                        50.750    20686354.024  
  86037197.594 9                        47.500  
 11 05 11  5  1 30.0000000  0 20G11G14G17G19G20G22G23G24G28G31G32R01 0.000000000
                                R07R08R09R10R16R22R23R24    
  20535636.004   107915519.171 7                        51.250    20535633.984  
  84090021.273 9                        49.250  
  22892897.648   120303002.193 6                        47.000    22892896.308  
  93742596.096 8                        39.000  
  23275793.566   122315115.283 6                        46.500    23275792.126  
  95310481.927 8                        40.750  
  24522635.458   128867312.028 6                        43.250    24522634.978  
 100416077.447 8                        37.000  
  21382053.458   112363471.917 7                        50.250    21382051.698  
  87555950.307 9                        45.500  
  25575110.050   134398103.896 3                        36.250    25575109.730  
 104725791.798 6                        25.750  
  24121095.120   126757208.239 6                        45.500    24121093.740  
  98771840.552 8                        35.000  
  20191007.346   106104488.397 7                        51.250    20191006.986  
  82678835.575 9                        49.500  
  25225107.492   132558818.352 5                        39.250    25225106.692  
 103292570.889 7                        27.250  
  23950785.522   125862255.969 6                        44.750    23950786.362  
  98074505.657 8                        38.250  
  20482481.464   107636194.001 7                        51.250    20482480.384  
  83872370.335 9                        49.000  
  21791442.796   116487765.304 7                        47.250    21791449.696  
  90601622.600 8                        38.750  
  20894486.964   111849869.128 8                        49.250    20894487.444  
  86994357.123 9                        43.750  
  19269457.672   103187082.877 8                        51.500    19269461.012  
  80256664.255 9                        50.250  
  22613733.552   120756110.026 7                        46.500    22613742.912  
  93921470.825 9                        41.500  
  24339150.320   129741372.776 6                        42.500    24339164.380  
 100910023.043 7                        29.000  
  23006074.808   122894349.372 6                        43.500    23006083.288  
  95584535.653 8                        40.750  
  23164176.368   123651945.855 6                        44.250    23164185.108  
  96173779.820 9                        41.500  
  19948119.648   106708993.400 8                        51.750    19948126.928  
  82995904.885 9                        49.250  
  20682006.564   110595987.441 8                        51.000    20682011.824  
  86019137.910 9                        47.750  
 11 05 11  5  1 40.0000000  0 20G11G14G17G19G20G22G23G24G28G31G32R01 0.000000000
                                R07R08R09R10R16R22R23R24    
  20538370.864   107929890.857 7                        51.250    20538368.844  
  84101219.980 9                        49.500  
  22897875.948   120329163.355 6                        47.000    22897874.608  
  93762981.408 8                        38.500  
  23271321.306   122291613.380 6                        46.250    23271319.906  
  95292168.774 8                        41.000  
  24529776.658   128904838.998 6                        42.500    24529776.158  
 100445319.186 8                        36.000  
  21377607.258   112340107.065 7                        50.250    21377605.498  
  87537743.931 9                        45.750  
  25581365.330   134430975.438 3                        36.500    25581364.910  
 104751405.866 7                        27.500  
  24113981.560   126719826.271 6                        44.750    24113980.180  
  98742711.770 8                        36.000  
  20191008.046   106104492.015 7                        51.250    20191007.666  
  82678838.390 9                        49.500  
  25229467.812   132581731.715 5                        40.000    25229467.032  
 103310425.411 7                        31.000  
  23945801.502   125836064.906 6                        44.500    23945802.342  
  98054097.051 8                        38.750  
  20481696.924   107632071.221 7                        51.000    20481695.844  
  83869157.779 9                        49.250  
  21785507.616   116456038.475 7                        47.500    21785514.496  
  90576946.200 8                        38.750  
  20899836.384   111878505.118 8                        49.500    20899836.904  
  87016629.547 9                        43.500  
  19269382.772   103186681.780 8                        51.250    19269386.112  
  80256352.289 9                        50.250  
  22609465.952   120733321.411 7                        47.250    22609475.292  
  93903746.347 9                        41.250  
  24331394.540   129700030.381 6                        42.250    24331408.580  
 100877867.847 7                        30.500  
  23008140.668   122905385.325 6                        43.500    23008149.288  
  95593119.172 8                        40.500  
  23172640.488   123697127.673 6                        44.000    23172649.248  
  96208921.186 9                        41.500  
  19951892.828   106729177.313 8                        51.750    19951900.108  
  83011603.467 9                        49.250  
  20677678.444   110572842.953 8                        50.750    20677683.684  
  86001136.640 9                        47.500  
 11 05 11  5  1 50.0000000  0 20G11G14G17G19G20G22G23G24G28G31G32R01 0.000000000
                                R07R08R09R10R16R22R23R24    
  20541116.184   107944317.551 7                        51.500    20541114.144  
  84112461.551 9                        49.250  
  22902862.248   120355366.504 6                        47.000    22902860.908  
  93783399.432 8                        39.500  
  23266858.466   122268160.958 6                        46.750    23266857.106  
  95273894.164 9                        41.250  
  24536918.958   128942371.844 6                        43.000    24536918.478  
 100474565.500 8                        36.750  
  21373167.658   112316776.786 7                        50.500    21373165.898  
  87519564.503 9                        45.750  
  25587620.510   134463846.426 3                        36.000    25587619.990  
 104777019.637 7                        32.500  
  24106870.140   126682455.793 6                        45.250    24106868.780  
  98713591.938 8                        34.500  
  20191018.266   106104545.688 7                        51.500    20191017.886  
  82678880.209 9                        49.500  
  25233833.352   132604672.651 5                        39.500    25233832.612  
 103328301.463 8                        35.250  
  23940824.042   125809908.101 6                        44.750    23940824.842  
  98033715.146 8                        38.000  
  20480920.844   107627992.945 7                        51.250    20480919.784  
  83865979.900 9                        48.750  
  21779578.556   116424344.371 7                        47.750    21779585.416  
  90552295.237 8                        39.000  
  20905191.264   111907170.239 8                        49.250    20905191.804  
  87038924.629 9                        43.500  
  19269318.632   103186338.259 8                        51.250    19269321.952  
  80256085.109 9                        50.250  
  22605211.772   120710604.303 7                        47.250    22605221.072  
  93886077.498 9                        41.500  
  24323640.200   129658695.641 6                        42.000    24323654.240  
 100845718.667 7                        31.250  
  23010222.648   122916507.345 6                        44.500    23010231.368  
  95601769.632 8                        40.750  
  23181107.548   123742325.216 6                        43.250    23181116.328  
  96244074.777 9                        41.500  
  19955681.528   106749444.188 8                        51.750    19955688.788  
  83027366.582 9                        49.250  
  20673364.464   110549774.048 8                        51.000    20673369.684  
  85983194.160 9                        47.500  
 11 05 11  5  2  0.0000000  0 20G11G14G17G19G20G22G23G24G28G31G32R01 0.000000000
                                R07R08R09R10R16R22R23R24    
  20543872.144   107958800.108 7                        51.250    20543870.104  
  84123746.650 9                        49.250  
  22907856.708   120381612.461 6                        47.000    22907855.368  
  93803850.819 8                        38.750  
  23262405.246   122244759.069 6                        47.000    23262403.886  
  95255658.923 9                        41.500  
  24544062.538   128979911.376 6                        43.250    24544062.078  
 100503817.024 8                        37.750  
  21368734.798   112293482.036 7                        50.250    21368733.058  
  87501412.749 9                        45.500  
  25593875.730   134496717.705 2                        33.500    25593875.130  
 104802633.654 7                        27.750  
  24099761.160   126645097.946 6                        46.250    24099759.820  
  98684481.937 8                        35.000  
  20191038.186   106104650.321 7                        51.250    20191037.786  
  82678961.737 9                        49.750  
  25238204.312   132627641.996 5                        39.500    25238203.552  
 103346199.682 6                        24.000  
  23935853.262   125783786.536 6                        44.500    23935854.062  
  98013360.706 8                        38.500  
  20480153.404   107623960.018 7                        51.250    20480152.344  
  83862837.362 9                        49.000  
  21773655.736   116392683.670 7                        48.000    21773662.596  
  90527670.266 8                        39.250  
  20910551.804   111935865.611 8                        49.250    20910552.344  
  87061243.241 9                        43.250  
  19269265.432   103186053.373 8                        51.250    19269268.752  
  80255863.528 9                        50.250  
  22600971.152   120687959.680 7                        47.000    22600980.412  
  93868465.013 9                        41.250  
  24315887.560   129617369.926 6                        42.000    24315901.600  
 100813576.488 7                        30.750  
  23012320.908   122927716.232 6                        44.000    23012329.708  
  95610487.651 8                        40.750  
  23189577.728   123787539.364 6                        42.500    23189586.548  
  96279241.272 8                        41.000  
  19959485.868   106769794.746 8                        51.750    19959493.128  
  83043194.777 9                        49.250  
  20669064.844   110526782.021 8                        51.000    20669070.044  
  85965311.468 9                        47.750  
 11 05 11  5  2 10.0000000  0 20G11G14G17G19G20G22G23G24G28G31G32R01 0.000000000
                                R07R08R09R10R16R22R23R24    
  20546639.104   107973340.484 7                        51.250    20546637.044  
  84135076.801 9                        49.250  
  22912859.708   120407903.201 6                        47.000    22912858.328  
  93824337.102 8                        38.500  
  23257962.046   122221409.821 7                        47.250    23257960.706  
  95237464.711 9                        41.500  
  24551207.758   129017459.593 6                        43.500    24551207.338  
 100533075.340 8                        34.750  
  21364309.098   112270224.939 7                        50.250    21364307.358  
  87483290.338 9                        45.750  
  25600131.390   134529591.347 1                        32.000    25600127.750  
 104828243.42418                        34.250  
  24092654.980   126607754.844 6                        46.000    24092653.660  
  98655383.424 8                        35.500  
  20191068.206   106104808.058 7                        51.250    20191067.806  
  82679084.643 9                        49.500  
  25242581.052   132650641.739 4                        37.750    25242580.252  
 103364121.486 7                        28.750  
  23930889.582   125757702.409 6                        45.000    23930890.422  
  97993035.436 8                        38.250  
  20479395.004   107619974.560 7                        51.250    20479393.944  
  83859731.806 9                        49.000  
  21767739.616   116361058.767 7                        47.500    21767746.496  
  90503073.121 8                        39.250  
  20915918.344   111964593.069 8                        49.250    20915918.864  
  87083586.813 9                        43.250  
  19269223.572   103185829.167 8                        51.250    19269226.872  
  80255689.143 9                        50.250  
  22596744.552   120665389.898 7                        47.500    22596753.772  
  93850910.751 9                        41.250  
  24308136.980   129576055.261 6                        41.500    24308151.020  
 100781442.903 7                        31.500  
  23014435.808   122939014.056 6                        43.500    23014444.688  
  95619274.860 8                        41.000  
  23198051.408   123832772.299 6                        43.750    23198060.268  
  96314422.377 8                        40.250  
  19963306.248   106790231.090 8                        51.750    19963313.488  
  83059089.701 9                        49.250  
  20664780.044   110503869.142 8                        51.000    20664785.224  
  85947490.338 9                        47.750  
 11 05 11  5  2 20.0000000  0 20G11G14G17G19G20G22G23G24G28G31G32R01 0.000000000
                                R07R08R09R10R16R22R23R24    
  20549415.544   107987930.609 7                        51.250    20549413.464  
  84146445.723 9                        49.250  
  22917869.648   120434230.532 7                        47.250    22917868.248  
  93844851.889 8                        39.000  
  23253527.346   122198105.260 6                        47.000    23253526.006  
  95219305.304 8                        40.500  
  24558353.078   129055008.256 6                        43.500    24558352.638  
 100562333.989 8                        36.500  
  21359889.038   112246997.396 7                        50.500    21359887.298  
  87465190.962 9                        45.500  
  25606385.930   134562459.166 1                        32.250                  
                                                
  24085550.120   126570418.479 6                        45.500    24085548.800  
  98626290.151 8                        35.000  
  20191106.786   106105010.782 7                        51.250    20191106.386  
  82679242.608 9                        49.500  
  25246961.972   132673663.623 4                        38.500    25246961.172  
 103382060.621 8                        33.250  
  23925931.522   125731647.746 6                        44.500    23925932.362  
  97972733.132 8                        38.250  
  20478644.084   107616028.433 7                        51.250    20478643.024  
  83856656.902 9                        49.250  
  21761828.656   116329461.411 7                        47.250    21761835.556  
  90478497.421 8                        38.750  
  20921289.404   111993344.827 8                        49.250    20921289.924  
  87105949.284 9                        43.250  
  19269191.492   103185657.447 8                        51.500    19269194.812  
  80255555.581 9                        50.250  
  22592530.392   120642886.610 7                        47.000    22592539.612  
  93833408.218 9                        41.500  
  24300387.040   129534743.906 6                        42.500    24300401.080  
 100749311.876 7                        31.500  
  23016565.848   122950392.535 6                        44.000    23016574.748  
  95628124.761 8                        40.750  
  23206527.008   123878015.342 6                        44.000    23206535.868  
  96349611.377 8                        40.250  
  19967141.108   106810744.938 8                        51.750    19967148.348  
  83075044.902 9                        49.250  
  20660508.484   110481027.105 8                        51.000    20660513.624  
  85929724.311 9                        47.750  
 11 05 11  5  2 30.0000000  0 20G11G14G17G19G20G22G23G24G28G31G32R01 0.000000000
                                R07R08R09R10R16R22R23R24    
  20552202.324   108002575.137 7                        51.250    20552200.244  
  84157857.033 9                        49.250  
  22922887.448   120460599.033 7                        47.250    22922886.028  
  93865398.765 8                        39.000  
  23249102.046   122174850.060 6                        46.750    23249100.686  
  95201184.375 8                        40.250  
  24565499.358   129092561.998 6                        43.250    24565498.918  
 100591596.578 8                        36.500  
  21355475.478   112223804.073 7                        50.250    21355473.758  
  87447118.247 9                        45.750  
  25612640.290   134595326.068 1                        31.750                  
                                                
  24078447.420   126533093.533 6                        44.750    24078446.100  
  98597205.812 8                        36.500  
  20191154.826   106105263.150 7                        51.500    20191154.406  
  82679439.248 9                        49.500  
  25251347.992   132696712.311 4                        38.500    25251347.152  
 103400020.635 8                        34.500  
  23920979.982   125705627.327 6                        45.000    23920980.822  
  97952457.512 8                        36.500  
  20477901.524   107612126.317 7                        51.000    20477900.464  
  83853616.290 9                        49.250  
  21755923.756   116297896.382 7                        47.500    21755930.636  
  90453946.844 8                        39.000  
  20926665.844   112022125.286 8                        49.500    20926666.324  
  87128334.066 9                        43.250  
  19269170.072   103185542.725 8                        51.250    19269173.392  
  80255466.355 9                        50.250  
  22588329.672   120620455.074 7                        46.750    22588338.872  
  93815961.493 9                        41.500  
  24292638.540   129493440.321 6                        41.500    24292652.580  
 100717186.946 7                        31.750  
  23018711.868   122961856.482 7                        45.750    23018720.828  
  95637041.171 8                        40.750  
  23215005.388   123923273.324 6                        44.000    23215014.248  
  96384811.980 8                        41.000  
  19970991.328   106831340.915 8                        51.750    19970998.568  
  83091063.982 9                        49.250  
  20656251.104   110458260.946 8                        51.000    20656256.244  
  85912017.301 9                        47.750  
 11 05 11  5  2 40.0000000  0 19G11G14G17G19G20G23G24G28G31G32R01R07 0.000000000
                                R08R09R10R16R22R23R24       
  20554999.984   108017276.863 7                        51.250    20554997.904  
  84169312.912 9                        49.250  
  22927913.588   120487011.475 6                        47.000    22927912.188  
  93885979.872 8                        38.500  
  23244686.706   122151647.223 6                        46.750    23244685.346  
  95183104.253 8                        40.750  
  24572647.138   129130123.620 6                        43.750    24572646.698  
 100620865.323 8                        35.750  
  21351068.978   112200647.823 7                        50.250    21351067.278  
  87429074.424 9                        45.750  
  24071347.420   126495783.031 6                        46.000    24071346.180  
  98568132.720 8                        36.750  
  20191212.866   106105568.094 7                        51.500    20191212.446  
  82679676.869 9                        49.500  
  25255739.612   132719790.554 5                        39.500    25255738.812  
 103418003.647 7                        31.000  
  23916035.542   125679644.156 6                        44.250    23916036.362  
  97932210.912 8                        37.750  
  20477167.924   107608271.163 7                        51.250    20477166.864  
  83850612.277 9                        49.000  
  21750025.416   116266366.526 7                        47.500    21750032.296  
  90429423.632 8                        39.250  
  20932048.084   112050936.867 8                        49.250    20932048.544  
  87150743.072 9                        43.250  
  19269159.872   103185488.021 8                        51.500    19269163.172  
  80255423.806 9                        50.250  
  22584142.912   120598098.180 7                        47.750    22584152.112  
  93798572.804 9                        41.500  
  24284892.160   129452147.964 6                        41.250    24284906.180  
 100685070.681 7                        31.750  
  23020874.428   122973408.578 6                        44.500    23020883.408  
  95646026.128 8                        40.750  
  23223487.088   123968549.041 6                        44.250    23223495.948  
  96420026.368 9                        41.500  
  19974857.428   106852021.828 8                        51.750    19974864.648  
  83107149.122 9                        49.000  
  20652008.444   110435573.515 8                        50.750    20652013.584  
  85894371.517 9                        47.750  
 11 05 11  5  2 50.0000000  0 19G11G14G17G19G20G23G24G28G31G32R01R07 0.000000000
                                R08R09R10R16R22R23R24       
  20557807.644   108032031.145 7                        51.250    20557805.564  
  84180809.745 9                        49.500  
  22932947.228   120513463.213 7                        47.250    22932945.808  
  93906591.591 8                        38.750  
  23240280.466   122128492.328 6                        46.750    23240279.106  
  95165061.480 9                        41.250  
  24579795.518   129167688.405 6                        43.500    24579795.078  
 100650136.539 8                        35.500  
  21346668.678   112177524.158 7                        50.250    21346666.978  
  87411055.982 9                        45.750  
  24064249.360   126458482.498 6                        45.500    24064248.140  
  98539067.380 8                        36.500  
  20191280.026   106105921.051 7                        51.250    20191279.606  
  82679951.890 9                        49.750  
  25260135.992   132742893.602 5                        40.000    25260135.212  
 103436006.012 7                        33.000  
  23911097.322   125653693.782 6                        45.000    23911098.142  
  97911989.841 8                        37.250  
  20476442.344   107604458.251 7                        51.250    20476441.284  
  83847641.177 9                        49.250  
  21744132.816   116234867.269 7                        47.000    21744139.676  
  90404924.237 8                        39.000  
  20937435.344   112079775.247 8                        49.250    20937435.784  
  87173172.910 9                        43.250  
  19269160.012   103185488.744 8                        51.500    19269163.312  
  80255424.368 9                        50.250  
  22579969.272   120575811.266 7                        47.000    22579978.452  
  93781238.569 9                        41.250  
  24277147.040   129410862.255 6                        42.000    24277161.020  
 100652959.628 7                        32.000  
  23023052.668   122985044.265 7                        45.500    23023061.648  
  95655076.096 9                        41.250  
  23231971.188   124013837.596 6                        44.500    23231980.068  
  96455250.758 9                        41.250  
  19978738.528   106872782.946 8                        51.750    19978745.748  
  83123296.650 9                        49.000  
  20647779.684   110412960.424 8                        51.000    20647784.824  
  85876783.566 9                        47.750  
 11 05 11  5  3  0.0000000  0 19G11G14G17G19G20G23G24G28G31G32R01R07 0.000000000
                                R08R09R10R16R22R23R24       
  20560625.744   108046840.374 7                        51.250    20560623.664  
  84192349.393 9                        49.250  
  22937988.748   120539956.490 6                        47.000    22937987.328  
  93927235.695 8                        39.500  
  23235883.826   122105387.727 7                        47.750    23235882.426  
  95147057.892 8                        40.250  
  24586944.936   129205258.619 6                        43.750    24586944.516  
 100679411.988 8                        37.000  
  21342275.058   112154435.587 7                        50.500    21342273.358  
  87393064.892 9                        45.500  
  24057153.660   126421194.482 6                        45.000    24057152.480  
  98510011.791 8                        37.000  
  20191356.766   106106324.367 7                        51.500    20191356.366  
  82680266.160 9                        49.500  
  25264537.512   132766023.820 4                        37.250    25264536.792  
 103454029.560 7                        28.250  
  23906165.802   125627778.619 6                        45.250    23906166.622  
  97891796.257 8                        37.750  
  20475725.264   107600689.959 7                        51.000    20475724.204  
  83844704.844 9                        49.000  
  21738246.396   116203401.237 7                        47.500    21738253.296  
  90380450.663 8                        39.000  
  20942828.004   112108642.503 8                        49.250    20942828.424  
  87195625.202 9                        43.250  
  19269170.912   103185547.054 8                        51.500    19269174.192  
  80255469.721 9                        50.250  
  22575809.232   120553597.050 7                        47.250    22575818.392  
  93763960.851 9                        41.250  
  24269403.620   129369585.709 6                        41.250    24269417.600  
 100620855.670 8                        33.250  
  23025246.988   122996765.749 6                        44.250    23025255.968  
  95664192.806 8                        41.000  
  23240458.148   124059141.306 6                        43.750    23240467.008  
  96490486.928 9                        41.250  
  19982635.048   106893626.610 8                        51.750    19982642.248  
  83139508.370 9                        49.000  
  20643565.284   110390424.176 8                        51.000    20643570.424  
  85859255.371 9                        48.000  
 11 05 11  5  3 10.0000000  0 20G11G14G17G19G20G22G23G24G28G31G32R01 0.000000000
                                R07R08R09R10R16R22R23R24    
  20563454.224   108061704.024 7                        51.250    20563452.144  
  84203931.448 9                        49.250  
  22943038.108   120566490.822 7                        47.250    22943036.688  
  93947911.780 8                        38.250  
  23231496.686   122082333.103 7                        47.500    23231495.246  
  95129093.236 9                        41.250  
  24594095.316   129242833.833 6                        43.500    24594094.896  
 100708691.343 8                        35.500  
  21337888.018   112131381.602 7                        50.250    21337886.318  
  87375100.762 9                        45.750  
  25637656.810   134726795.99911                        31.750                  
                                                
  24050060.220   126383918.248 6                        44.000    24050059.060  
  98480965.396 8                        36.500  
  20191443.026   106106777.619 7                        51.250    20191442.626  
  82680619.340 9                        49.500  
  25268944.072   132789180.504 5                        39.250    25268943.432  
 103472073.740 7                        28.500  
  23901240.922   125601898.311 6                        44.750    23901241.722  
  97871629.799 8                        37.750  
  20475016.544   107596965.708 7                        51.250    20475015.504  
  83841802.828 9                        49.250  
  21732366.116   116171967.845 7                        47.500    21732372.996  
  90356002.473 8                        39.250  
  20948226.144   112137539.008 8                        49.250    20948226.524  
  87218100.266 9                        43.250  
  19269192.472   103185662.480 8                        51.250    19269195.752  
  80255559.492 9                        50.250  
  22571662.712   120531454.974 7                        47.000    22571671.852  
  93746739.262 8                        41.000  
  24261661.880   129328317.961 6                        41.750    24261675.840  
 100588758.599 7                        32.250  
  23027457.268   123008572.484 7                        45.500    23027466.228  
  95673375.795 8                        40.750  
  23248947.808   124104459.559 6                        43.250    23248956.688  
  96525734.381 9                        41.250  
  19986546.928   106914552.375 8                        51.750    19986554.108  
  83155783.955 9                        49.000  
  20639365.184   110367964.343 8                        51.000    20639370.304  
  85841786.604 9                        48.000  
 11 05 11  5  3 20.0000000  0 20G11G14G17G19G20G22G23G24G28G31G32R01 0.000000000
                                R07R08R09R10R16R22R23R24    
  20566293.044   108076622.084 7                        51.250    20566290.964  
  84215555.898 9                        49.250  
  22948095.248   120593066.123 7                        47.250    22948093.828  
  93968619.800 8                        38.750  
  23227119.106   122059328.571 7                        47.500    23227117.646  
  95111167.636 8                        41.000  
  24601246.596   129280413.879 6                        42.750    24601246.176  
 100737974.428 8                        36.000  
  21333507.558   112108362.248 7                        50.500    21333505.858  
  87357163.598 9                        46.000  
  25643910.530   134759659.364 1                        32.250                  
                                                
  24042969.040   126346654.098 6                        45.250    24042967.900  
  98451928.393 8                        36.000  
  20191538.786   106107280.865 7                        51.500    20191538.386  
  82681011.475 9                        49.500  
  25273355.672   132812363.692 5                        39.250    25273355.132  
 103490138.590 7                        30.000  
  23896322.702   125576053.066 6                        44.750    23896323.522  
  97851490.683 8                        37.500  
  20474316.244   107593285.617 7                        51.250    20474315.204  
  83838935.227 9                        49.000  
  21726491.936   116140567.150 7                        47.250    21726498.856  
  90331579.714 8                        39.000  
  20953629.504   112166463.462 8                        49.250    20953629.844  
  87240597.046 9                        43.250  
  19269224.732   103185835.228 8                        51.500    19269228.012  
  80255693.850 9                        50.250  
  22567529.772   120509385.460 7                        47.500    22567538.912  
  93729574.088 9                        41.250  
  24253921.860   129287059.334 6                        41.250    24253935.780  
 100556668.568 7                        31.750  
  23029683.548   123020464.496 6                        45.000    23029692.468  
  95682625.169 8                        41.000  
  23257440.208   124149792.415 6                        43.000    23257449.108  
  96560993.205 8                        40.750  
  19990474.108   106935559.995 8                        51.500    19990481.268  
  83172123.194 9                        49.000  
  20635179.384   110345581.054 8                        50.750    20635184.524  
  85824377.387 9                        48.000  
 11 05 11  5  3 30.0000000  0 20G11G14G17G19G20G22G23G24G28G31G32R01 0.000000000
                                R07R08R09R10R16R22R23R24    
  20569142.344   108091595.243 7                        51.500    20569140.264  
  84227223.287 9                        49.250  
  22953160.268   120619682.956 6                        47.000    22953158.848  
  93989360.169 8                        37.500  
  23222751.206   122036374.852 6                        47.000    23222749.706  
  95093281.617 8                        40.500  
  24608398.936   129317999.375 5                        42.000    24608398.496  
 100767261.776 8                        34.750  
  21329133.838   112085378.223 7                        50.250    21329132.138  
  87339253.977 9                        46.000  
  25650164.210   134792522.422 2                        34.500                  
                                                
  24035880.300   126309402.644 6                        45.750    24035879.160  
  98422901.319 8                        35.250  
  20191644.206   106107834.804 7                        51.250    20191643.806  
  82681443.109 9                        49.750  
  25277772.432   132835573.999 5                        39.250    25277771.932  
 103508224.525 6                        24.500  
  23891411.302   125550243.679 6                        44.750    23891412.142  
  97831379.505 8                        37.250  
  20473624.464   107589650.341 7                        51.000    20473623.444  
  83836102.540 9                        49.250  
  21720624.036   116109199.992 7                        47.750    21720630.956  
  90307183.059 8                        39.250  
  20959038.344   112195417.334 7                        49.000    20959038.664  
  87263116.710 9                        43.000  
  19269267.792   103186065.746 8                        51.250    19269271.052  
  80255873.141 9                        50.250  
  22563410.552   120487389.151 7                        47.250    22563419.672  
  93712465.875 9                        41.250  
  24246183.640   129245810.461 6                        41.500    24246197.580  
 100524586.174 7                        32.000  
  23031925.928   123032442.545 6                        45.000    23031934.808  
  95691941.409 9                        41.250  
  23265935.428   124195140.252 6                        43.750    23265944.328  
  96596263.687 8                        40.000  
  19994416.688   106956650.113 8                        51.750    19994423.868  
  83188526.609 9                        49.000  
  20631008.084   110323275.268 8                        51.000    20631013.224  
  85807028.442 9                        48.000  
 11 05 11  5  3 40.0000000  0 20G11G14G17G19G20G22G23G24G28G31G32R01 0.000000000
                                R07R08R09R10R16R22R23R24    
  20572001.864   108106622.070 7                        51.250    20571999.784  
  84238932.492 9                        49.000  
  22958232.928   120646339.893 6                        46.750    22958231.528  
  94010131.798 8                        38.000  
  23218392.726   122013470.743 6                        46.750    23218391.226  
  95075434.274 8                        41.000  
  24615552.016   129355588.814 6                        42.250    24615551.556  
 100796552.195 8                        33.750  
  21324766.598   112062428.290 7                        50.250    21324764.898  
  87321370.918 9                        46.000  
  25656417.590   134825383.707 2                        33.250                  
                                                
  24028793.780   126272162.866 6                        45.500    24028792.640  
  98393883.321 8                        37.000  
  20191759.006   106108438.071 7                        51.500    20191758.606  
  82681913.190 9                        49.500  
  25282194.052   132858809.903 5                        41.250    25282193.592  
 103526330.426 7                        31.750  
  23886506.482   125524468.829 6                        44.750    23886507.302  
  97811295.212 8                        38.250  
  20472940.964   107586058.537 7                        51.250    20472939.944  
  83833303.730 9                        49.250  
  21714762.136   116077864.914 7                        47.500    21714769.076  
  90282811.333 8                        39.250  
  20964452.304   112224398.603 8                        49.500    20964452.604  
  87285657.693 9                        43.000  
  19269321.392   103186352.755 8                        51.250    19269324.652  
  80256096.373 9                        50.250  
  22559304.832   120465464.969 7                        47.250    22559313.932  
  93695413.741 9                        41.500  
  24238447.120   129204570.403 5                        40.250    24238461.000  
 100492510.606 7                        32.000  
  23034184.128   123044505.097 6                        45.000    23034192.968  
  95701323.364 9                        41.500  
  23274433.148   124240501.536 6                        43.500    23274442.068  
  96631544.652 8                        40.250  
  19998374.468   106977821.372 8                        51.750    19998381.608  
  83204993.131 9                        49.000  
  20626851.024   110301045.589 8                        50.750    20626856.184  
  85789738.694 9                        48.000  
 11 05 11  5  3 50.0000000  0 20G11G14G17G19G20G22G23G24G28G31G32R01 0.000000000
                                R07R08R09R10R16R22R23R24    
  20574871.844   108121703.848 7                        51.250    20574869.764  
  84250684.517 9                        49.250  
  22963313.428   120673038.083 6                        46.500    22963312.028  
  94030935.560 8                        39.000  
  23214043.926   121990617.573 6                        47.000    23214042.446  
  95057626.614 8                        40.500  
  24622706.056   129393183.399 5                        41.750    24622705.596  
 100825846.637 8                        34.750  
  21320406.118   112039513.773 7                        50.500    21320404.418  
  87303515.453 9                        46.000  
  25662670.910   134858244.618 1                        31.250                  
                                                
  24021709.740   126234936.043 6                        45.250    24021708.620  
  98364875.435 8                        36.000  
  20191883.446   106109091.982 7                        51.250    20191883.046  
  82682422.724 9                        49.750  
  25286620.752   132882072.500 5                        40.500    25286620.332  
 103544457.125 6                        26.000  
  23881608.502   125498729.959 6                        45.000    23881609.342  
  97791238.985 8                        36.500  
  20472266.004   107582511.530 7                        51.250    20472264.964  
  83830539.828 9                        49.000  
  21708906.516   116046563.325 7                        47.500    21708913.476  
  90258465.674 8                        39.000  
  20969871.704   112253409.011 8                        49.250    20969871.984  
  87308221.335 9                        43.250  
  19269385.752   103186697.341 8                        51.250    19269389.012  
  80256364.382 9                        50.250  
  22555212.832   120443614.080 7                        47.000    22555221.932  
  93678418.626 9                        41.500  
  24230712.420   129163340.198 5                        40.500    24230726.260  
 100460442.721 7                        32.250  
  23036458.368   123056653.326 7                        45.250    23036467.188  
  95710771.985 8                        41.000  
  23282933.628   124285877.547 6                        44.000    23282942.548  
  96666837.047 8                        40.500  
  20002347.588   106999074.890 8                        51.750    20002354.748  
  83221523.629 9                        49.000  
  20622708.484   110278893.619 8                        50.750    20622713.664  
  85772509.386 9                        48.000  
 11 05 11  5  4  0.0000000  0 19G11G14G17G19G20G23G24G28G31G32R01R07 0.000000000
                                R08R09R10R16R22R23R24       
  20577752.024   108136839.394 7                        51.250    20577749.984  
  84262478.440 9                        49.250  
  22968401.568   120699776.426 6                        46.750    22968400.188  
  94051770.618 8                        37.500  
  23209704.606   121967814.251 6                        47.000    23209703.146  
  95039857.791 8                        40.750  
  24629860.856   129430781.919 5                        41.500    24629860.376  
 100855144.118 8                        33.750  
  21316052.138   112016633.509 7                        50.500    21316050.418  
  87285686.686 9                        45.750  
  24014627.960   126197721.156 6                        46.000    24014626.880  
  98335876.851 8                        35.000  
  20192017.306   106109795.405 7                        51.500    20192016.906  
  82682970.838 9                        49.750  
  25291052.332   132905360.618 4                        38.500    25291051.932  
 103562603.690 6                        22.250  
  23876717.182   125473026.020 6                        44.750    23876718.022  
  97771209.980 8                        38.000  
  20471599.324   107579008.067 7                        51.250    20471598.284  
  83827809.855 9                        49.000  
  21703056.936   116015294.000 7                        47.500    21703063.876  
  90234145.094 8                        39.000  
  20975296.184   112282446.578 8                        49.500    20975296.464  
  87330806.093 9                        43.500  
  19269460.652   103187098.460 8                        51.250    19269463.912  
  80256676.361 9                        50.250  
  22551134.412   120421835.625 7                        47.250    22551143.512  
  93661479.849 9                        41.500  
  24222979.500   129122119.423 5                        40.250    24222993.300  
 100428382.156 7                        30.500  
  23038748.448   123068886.090 7                        45.500    23038757.248  
  95720286.346 9                        41.250  
  23291436.608   124331266.946 6                        44.000    23291445.568  
  96702139.845 8                        40.750  
  20006335.868   107020409.422 8                        51.750    20006343.008  
  83238117.138 9                        49.000  
  20618580.244   110256818.174 8                        50.750    20618585.464  
  85755339.594 9                        48.000  
 11 05 11  5  4 10.0000000  0 19G11G14G17G19G20G23G24G28G31G32R01R07 0.000000000
                                R08R09R10R16R22R23R24       
  20580642.524   108152029.047 7                        51.500    20580640.484  
  84274314.521 9                        49.250  
  22973497.368   120726555.020 6                        46.500    22973495.988  
  94072637.038 8                        38.500  
  23205374.866   121945061.248 7                        47.250    23205373.406  
  95022128.176 8                        39.750  
  24637016.436   129468384.656 5                        41.500    24637015.936  
 100884444.885 8                        38.250  
  21311704.758   111993787.915 7                        50.500    21311703.058  
  87267884.926 9                        46.000  
  24007548.540   126160518.629 6                        46.250    24007547.440  
  98306887.856 8                        36.000  
  20192160.666   106110548.748 7                        51.500    20192160.266  
  82683557.857 9                        49.500  
  25295488.792   132928674.556 5                        40.000    25295488.452  
 103580770.402 8                        34.500  
  23871832.582   125447357.502 6                        45.500    23871833.422  
  97751208.554 8                        38.000  
  20470940.984   107575548.522 7                        51.000    20470939.964  
  83825114.103 9                        49.250  
  21697213.516   115984057.606 7                        47.500    21697220.436  
  90209850.125 8                        39.500  
  20980725.924   112311512.321 7                        49.000    20980726.204  
  87353412.769 9                        43.250  
  19269546.192   103187556.434 8                        51.250    19269549.432  
  80257032.561 9                        50.250  
  22547069.652   120400130.215 7                        47.500    22547078.752  
  93644597.871 9                        41.250  
  24215248.360   129080908.152 6                        41.250    24215262.100  
 100396328.966 7                        32.000  
  23041054.408   123081203.644 7                        46.250    23041063.168  
  95729866.677 9                        41.250  
  23299942.148   124376670.003 6                        43.750    23299951.148  
  96737453.277 8                        40.000  
  20010339.348   107041825.268 8                        51.500    20010346.488  
  83254773.895 9                        49.000  
  20614466.404   110234819.685 8                        50.750    20614471.644  
  85738229.657 9                        48.000  
 11 05 11  5  4 20.0000000  0 20G11G14G17G19G20G22G23G24G28G31G32R01 0.000000000
                                R07R08R09R10R16R22R23R24    
  20583543.504   108167273.821 7                        51.250    20583541.504  
  84286193.558 9                        49.250  
  22978601.008   120753374.971 6                        46.750    22978599.648  
  94093535.679 8                        38.500  
  23201054.946   121922359.794 6                        47.000    23201053.486  
  95004438.736 8                        41.000  
  24644173.036   129505992.601 5                        42.000    24644172.516  
 100913749.730 8                        34.250  
  21307364.198   111970978.100 7                        50.500    21307362.478  
  87250111.049 9                        46.500  
  25681429.350   134956821.65811                        29.750                  
                                                
  24000471.720   126123329.615 6                        45.750    24000470.560  
  98277909.416 8                        36.000  
  20192313.726   106111353.147 7                        51.250    20192313.326  
  82684184.655 9                        49.750  
  25299930.372   132952015.259 5                        39.500    25299930.012  
 103598957.958 7                        30.500  
  23866955.002   125421725.639 6                        45.250    23866955.802  
  97731235.710 8                        38.500  
  20470291.204   107572133.879 7                        51.000    20470290.184  
  83822453.342 9                        49.000  
  21691376.416   115952855.054 7                        47.250    21691383.336  
  90185581.486 8                        39.250  
  20986161.040   112340606.939 7                        49.000    20986161.340  
  87376041.904 9                        43.000  
  19269642.532   103188072.296 8                        51.250    19269645.772  
  80257433.793 9                        50.250  
  22543018.792   120378498.921 7                        47.750    22543027.912  
  93627773.554 9                        41.500  
  24207519.320   129039708.057 6                        41.750    24207532.980  
 100364284.499 7                        31.000  
  23043376.448   123093607.213 6                        45.000    23043385.148  
  95739513.851 9                        41.250  
  23308450.448   124422087.708 6                        43.750    23308459.468  
  96772778.117 8                        39.500  
  20014358.208   107063323.395 8                        51.750    20014365.348  
  83271494.646 9                        49.000  
  20610367.224   110212899.516 8                        50.750    20610372.484  
  85721180.637 9                        48.000  
 11 05 11  5  4 30.0000000  0 19G11G14G17G19G20G23G24G28G31G32R01R07 0.000000000
                                R08R09R10R16R22R23R24       
  20586454.684   108182572.152 7                        51.250    20586452.684  
  84298114.321 9                        49.250  
  22983712.208   120780234.563 6                        47.000    22983710.868  
  94114465.215 8                        37.500  
  23196744.506   121899708.311 7                        47.250    23196743.066  
  94986788.227 8                        40.750  
  24651330.296   129543604.104 5                        41.750    24651329.796  
 100943057.345 8                        36.750  
  21303030.158   111948202.506 7                        50.500    21303028.438  
  87232363.838 9                        46.250  
  23993397.160   126086152.567 6                        46.000    23993396.000  
  98248940.309 8                        37.000  
  20192476.226   106112207.025 7                        51.250    20192475.826  
  82684850.008 9                        49.500  
  25304376.732   132975381.104 4                        38.250    25304376.392  
 103617165.084 6                        26.000  
  23862084.102   125396128.997 6                        45.500    23862084.902  
  97711290.275 8                        36.250  
  20469649.684   107568762.694 7                        51.000    20469648.664  
  83819826.444 9                        49.000  
  21685545.376   115921684.833 7                        47.250    21685552.296  
  90161338.002 8                        39.250  
  20991601.360   112369729.293 8                        49.250    20991601.660  
  87398692.612 9                        43.250  
  19269749.412   103188644.521 8                        51.250    19269752.652  
  80257878.853 9                        50.250  
  22538981.512   120356940.284 7                        47.250    22538990.632  
  93611005.732 9                        41.500  
  24199792.080   128998517.629 5                        41.000    24199805.680  
 100332247.481 7                        31.250  
  23045714.248   123106094.944 7                        46.250    23045722.908  
  95749226.516 9                        41.250  
  23316961.208   124467518.389 6                        43.500    23316970.208  
  96808113.062 8                        39.750  
  20018392.168   107084902.291 8                        51.500    20018399.288  
  83288278.217 9                        49.000  
  20606282.424   110191056.341 8                        50.750    20606287.724  
  85704191.507 9                        48.000  
 11 05 11  5  4 40.0000000  0 19G11G14G17G19G20G23G24G28G31G32R01R07 0.000000000
                                R08R09R10R16R22R23R24       
  20589376.304   108197925.379 7                        51.250    20589374.324  
  84310077.866 9                        49.000  
  22988831.228   120807135.224 7                        47.250    22988829.888  
  94135426.761 8                        38.500  
  23192443.886   121877108.332 6                        47.000    23192442.446  
  94969177.860 9                        41.250  
  24658488.496   129581220.449 5                        41.500    24658487.996  
 100972368.732 8                        35.500  
  21298702.898   111925462.651 7                        50.500    21298701.178  
  87214644.469 9                        46.250  
  23986325.180   126048988.998 6                        46.250    23986324.000  
  98219981.706 8                        36.500  
  20192648.386   106113111.782 7                        51.250    20192647.986  
  82685555.014 9                        49.500  
  25308828.132   132998773.390 4                        38.250    25308827.812  
 103635392.851 8                        35.500  
  23857220.182   125370568.972 6                        44.500    23857220.982  
  97691373.442 8                        36.750  
  20469016.684   107565436.294 7                        51.000    20469015.684  
  83817234.445 9                        49.000  
  21679720.696   115890548.631 7                        47.500    21679727.616  
  90137120.956 8                        39.250  
  20997047.000   112398880.209 8                        49.250    20997047.320  
  87421365.542 9                        43.250  
  19269867.032   103189274.357 8                        51.250    19269870.272  
  80258368.726 9                        50.250  
  22534958.172   120335455.903 7                        47.250    22534967.272  
  93594295.680 9                        41.750  
  24192066.880   128957338.099 6                        42.750    24192080.460  
 100300219.051 7                        31.250  
  23048068.088   123118668.337 7                        45.500    23048076.708  
  95759005.809 8                        41.000  
  23325474.628   124512963.291 6                        43.000    23325483.608  
  96843459.036 8                        39.750  
  20022441.448   107106563.131 8                        51.500    20022448.588  
  83305125.527 9                        49.000  
  20602212.264   110169291.457 8                        51.000    20602217.584  
  85687263.264 9                        48.000  
 11 05 11  5  4 50.0000000  0 19G11G14G17G19G20G23G24G28G31G32R01R07 0.000000000
                                R08R09R10R16R22R23R24       
  20592308.164   108213332.357 7                        51.250    20592306.184  
  84322083.293 9                        49.250  
  22993957.828   120834075.673 6                        47.000    22993956.508  
  94156419.306 8                        39.000  
  23188152.846   121854558.833 6                        47.000    23188151.406  
  94951606.818 8                        40.500  
  24665647.396   129618840.468 6                        42.500    24665646.876  
 101001682.960 8                        35.250  
  21294382.238   111902757.348 7                        50.500    21294380.498  
  87196952.033 9                        46.250  
  23979255.602   126011837.897 6                        45.750    23979254.382  
  98191032.796 8                        34.250  
  20192830.046   106114066.325 7                        51.250    20192829.626  
  82686298.801 9                        49.500  
  25313284.292   133022190.800 4                        38.000    25313284.012  
 103653640.188 7                        31.750  
  23852363.042   125345044.702 6                        45.000    23852363.822  
  97671484.386 8                        37.750  
  20468392.004   107562153.541 7                        51.000    20468391.004  
  83814676.454 9                        49.250  
  21673902.156   115859445.171 7                        47.750    21673909.036  
  90112929.386 8                        39.250  
  21002497.680   112428058.204 8                        49.500    21002498.040  
  87444059.519 9                        43.250  
  19269995.192   103189960.643 8                        51.250    19269998.432  
  80258902.503 9                        50.250  
  22530948.532   120314044.755 7                        47.500    22530957.612  
  93577642.576 9                        42.000  
  24184343.640   128916168.825 6                        41.500    24184357.160  
 100268198.484 7                        30.500  
  23050437.728   123131326.023 7                        46.000    23050446.288  
  95768850.648 8                        41.000  
  23333990.448   124558421.057 6                        42.750    23333999.408  
  96878815.021 8                        40.000  
  20026505.808   107128304.692 8                        51.500    20026512.948  
  83322035.614 9                        49.000  
  20598156.564   110147603.935 8                        51.000    20598161.924  
  85670395.191 9                        48.000  
 11 05 11  5  5  0.0000000  0 19G11G14G17G19G20G23G24G28G31G32R01R07 0.000000000
                                R08R09R10R16R22R23R24       
  20595250.124   108228792.443 7                        51.250    20595248.144  
  84334130.101 9                        49.000  
  22999091.868   120861055.225 6                        47.000    22999090.568  
  94177442.309 8                        38.000  
  23183871.306   121832059.243 6                        47.000    23183869.866  
  94934074.668 8                        40.750  
  24672806.836   129656463.477 6                        42.500    24672806.336  
 101030999.525 8                        37.250  
  21290068.038   111880086.077 7                        50.500    21290066.318  
  87179286.109 9                        46.500  
  23972188.242   125974698.662 6                        45.750    23972186.982  
  98162093.153 8                        36.000  
  20193021.046   106115070.029 7                        51.500    20193020.646  
  82687080.908 9                        49.750  
  25317745.132   133045632.725 4                        38.500    25317744.892  
 103671906.619 7                        30.500  
  23847512.642   125319555.694 6                        44.750    23847513.422  
  97651622.873 8                        38.250  
  20467775.504   107558913.783 7                        51.000    20467774.484  
  83812151.963 9                        49.250  
  21668089.596   115828373.835 7                        47.750    21668096.496  
  90088762.797 8                        39.250  
  21007953.440   112457263.276 8                        49.250    21007953.820  
  87466774.563 9                        43.250  
  19270133.752   103190702.639 8                        51.250    19270136.992  
  80259479.613 9                        50.250  
  22526952.512   120292706.309 7                        47.000    22526961.592  
  93561046.026 9                        41.750  
  24176622.200   128875009.338 6                        42.250    24176635.700  
 100236185.566 7                        30.000  
  23052823.028   123144067.435 7                        45.750    23052831.528  
  95778760.622 8                        40.500  
  23342508.568   124603891.051 6                        43.000    23342517.488  
  96914180.513 8                        40.000  
  20030585.128   107150126.314 8                        51.500    20030592.288  
  83339007.965 9                        49.000  
  20594115.224   110125993.210 8                        51.000    20594120.624  
  85653586.848 9                        48.000  
 11 05 11  5  5 10.0000000  0 19G11G14G17G19G20G23G24G28G31G32R01R07 0.000000000
                                R08R09R10R16R22R23R24       
  20598202.464   108244307.065 7                        51.250    20598200.504  
  84346219.405 9                        49.000  
  23004233.608   120888075.198 7                        47.250    23004232.308  
  94198496.840 8                        38.500  
  23179599.546   121809611.145 6                        46.750    23179598.106  
  94916582.652 8                        41.000  
  24679967.136   129694090.863 6                        42.750    24679966.616  
 101060319.533 8                        36.250  
  21285760.598   111857450.279 7                        50.500    21285758.858  
  87161647.836 9                        46.500  
  23965123.422   125937572.916 6                        46.500    23965122.142  
  98133164.021 8                        37.750  
  20193221.666   106116124.365 7                        51.250    20193221.266  
  82687902.458 9                        49.750  
  25322210.892   133069100.444 4                        37.750    25322210.612  
 103690193.127 7                        28.000  
  23842669.182   125294103.300 6                        45.500    23842669.962  
  97631789.865 8                        38.500  
  20467167.464   107555718.506 7                        51.000    20467166.444  
  83809662.137 9                        49.250  
  21662283.376   115797336.245 7                        47.750    21662290.276  
  90064622.460 8                        39.500  
  21013414.460   112486496.408 8                        49.500    21013414.840  
  87489511.441 9                        43.500  
  19270283.032   103191501.994 8                        51.250    19270286.272  
  80260101.330 9                        50.250  
  22522970.432   120271442.275 7                        47.000    22522979.492  
  93544507.349 9                        42.000  
  24168902.880   128833861.061 6                        42.000    24168916.340  
 100204181.386 7                        30.000  
  23055224.248   123156893.921 7                        46.250    23055232.688  
  95788736.761 8                        40.500  
  23351029.208   124649374.557 6                        43.000    23351038.128  
  96949556.495 8                        40.750  
  20034679.648   107172029.337 8                        51.750    20034686.868  
  83356043.637 9                        49.000  
  20590088.524   110104460.675 8                        51.000    20590093.964  
  85636839.321 9                        48.000  
 11 05 11  5  5 20.0000000  0 19G11G14G17G19G20G23G24G28G31G32R01R07 0.000000000
                                R08R09R10R16R22R23R24       
  20601165.124   108259876.001 7                        51.250    20601163.184  
  84358351.037 9                        49.000  
  23009382.988   120915135.357 7                        47.250    23009381.688  
  94219582.657 8                        38.750  
  23175337.586   121787214.526 6                        46.500    23175336.166  
  94899130.755 8                        41.000  
  24687128.216   129731722.345 6                        42.500    24687127.696  
 101089642.717 8                        37.500  
  21281459.880   111834849.843 7                        50.500    21281458.140  
  87144037.105 9                        46.250  
  23958061.182   125900460.597 7                        47.250    23958059.902  
  98104245.343 8                        37.250  
  20193431.926   106117229.225 7                        51.500    20193431.526  
  82688763.389 9                        49.500  
  25326681.512   133092593.795 3                        36.500    25326681.172  
 103708499.589 6                        24.500  
  23837832.722   125268687.602 6                        45.500    23837833.482  
  97611985.458 8                        38.250  
  20466567.844   107552567.495 7                        51.000    20466566.844  
  83807206.801 9                        49.000  
  21656483.416   115766332.132 7                        47.750    21656490.336  
  90040508.159 8                        39.750  
  21018880.700   112515757.594 8                        49.500    21018881.120  
  87512270.119 9                        43.500  
  19270442.972   103192358.404 8                        51.250    19270446.212  
  80260767.427 9                        50.250  
  22519002.232   120250252.407 7                        47.250    22519011.292  
  93528026.366 9                        42.250  
  24161185.720   128792724.243 6                        41.500    24161199.120  
 100172186.064 7                        29.500  
  23057641.348   123169805.309 7                        45.750    23057649.728  
  95798778.958 8                        40.500  
  23359552.308   124694871.247 6                        44.000    23359561.248  
  96984942.743 8                        40.250  
  20038789.368   107194013.538 8                        51.500    20038796.588  
  83373142.448 9                        49.000  
  20586076.504   110083006.631 8                        51.000    20586081.944  
  85620152.842 9                        48.000  
 11 05 11  5  5 30.0000000  0 19G11G14G17G19G20G23G24G28G31G32R01R07 0.000000000
                                R08R09R10R16R22R23R24       
  20604138.204   108275499.637 7                        51.250    20604136.264  
  84370525.287 9                        49.250  
  23014540.108   120942235.990 7                        47.250    23014538.748  
  94240700.015 8                        38.000  
  23171085.466   121764869.726 6                        47.000    23171084.086  
  94881719.227 9                        41.500  
  24694290.136   129769358.247 6                        42.750    24694289.596  
 101118969.318 8                        36.250  
  21277166.000   111812285.236 7                        50.500    21277164.240  
  87126454.296 9                        46.250  
  23951001.622   125863362.107 6                        46.500    23951000.282  
  98075337.436 8                        37.500  
  20193651.866   106118384.984 7                        51.250    20193651.466  
  82689663.974 9                        49.500  
  25331157.052   133116112.937 4                        37.250    25331156.732  
 103726826.181 8                        33.250  
  23833003.342   125243309.089 6                        45.500    23833004.082  
  97592210.022 8                        37.500  
  20465976.724   107549461.175 7                        51.000    20465975.724  
  83804786.295 9                        49.250  
  21650689.816   115735362.001 7                        47.750    21650696.756  
  90016420.295 8                        39.750  
  21024352.180   112545046.804 8                        49.500    21024352.640  
  87535050.603 9                        43.500  
  19270613.632   103193272.339 8                        51.250    19270616.872  
  80261478.265 9                        50.250  
  22515048.072   120229137.437 7                        47.000    22515057.112  
  93511603.638 9                        42.250  
  24153470.740   128751599.066 6                        42.250    24153484.140  
 100140199.869 7                        31.000  
  23060074.428   123182802.020 7                        45.500    23060082.708  
  95808887.495 8                        40.750  
  23368077.968   124740381.558 6                        43.750    23368086.928  
  97020339.585 8                        40.250  
  20042914.308   107216079.199 8                        51.500    20042921.548  
  83390304.614 9                        49.250  
  20582079.244   110061631.566 8                        51.000    20582084.704  
  85603527.791 9                        48.000  
 11 05 11  5  5 40.0000000  0 19G11G14G17G19G20G23G24G28G31G32R01R07 0.000000000
                                R08R09R10R16R22R23R24       
  20607121.404   108291176.406 7                        51.250    20607119.464  
  84382740.939 9                        49.000  
  23019704.628   120969375.637 6                        46.750    23019703.268  
  94261847.779 8                        39.250  
  23166842.986   121742575.488 7                        47.250    23166841.646  
  94864347.103 8                        40.750  
  24701452.596   129806997.086 6                        43.000    24701452.096  
 101148298.239 8                        36.500  
  21272878.660   111789755.112 7                        50.500    21272876.900  
  87108898.359 9                        46.250  
  23943944.422   125826276.191 6                        45.000    23943943.062  
  98046439.353 8                        37.250  
  20193881.246   106119590.386 7                        51.500    20193880.846  
  82690603.246 9                        49.500  
  25335637.212   133139656.474 3                        37.000    25335636.992  
 103745171.816 7                        28.750  
  23828180.822   125217966.555 6                        45.000    23828181.522  
  97572462.613 8                        38.250  
  20465393.864   107546398.157 7                        51.000    20465392.864  
  83802399.525 9                        49.000  
  21644902.336   115704424.564 7                        47.500    21644909.276  
  89992357.857 8                        39.000  
  21029828.680   112574362.830 8                        49.500    21029829.160  
  87557851.952 9                        43.250  
  19270794.772   103194242.285 8                        51.250    19270798.012  
  80262232.663 9                        50.250  
  22511107.712   120208096.095 7                        47.750    22511116.732  
  93495238.164 9                        42.250  
  24145757.740   128710484.612 5                        40.500    24145771.160  
 100108221.975 7                        31.500  
  23062523.148   123195882.410 7                        46.000    23062531.368  
  95819061.119 8                        40.750  
  23376605.888   124785903.889 6                        44.000    23376614.868  
  97055745.793 8                        39.250  
  20047054.208   107238224.881 8                        51.500    20047061.468  
  83407529.019 9                        49.000  
  20578096.564   110040334.295 8                        51.000    20578102.004  
  85586963.243 9                        48.000  
 11 05 11  5  5 50.0000000  0 19G11G14G17G19G20G23G24G28G31G32R01R07 0.000000000
                                R08R09R10R16R22R23R24       
  20610114.944   108306907.555 7                        51.250    20610113.024  
  84394998.970 9                        49.250  
  23024876.788   120996555.347 7                        47.250    23024875.408  
  94283026.756 8                        38.750  
  23162610.366   121720333.080 7                        47.500    23162609.066  
  94847015.351 8                        40.500  
  24708615.836   129844639.914 6                        43.000    24708615.336  
 101177630.249 8                        35.500  
  21268598.100   111767260.623 7                        50.500    21268596.340  
  87091370.192 9                        46.500  
  23936889.802   125789204.060 6                        45.750    23936888.442  
  98017551.989 8                        38.000  
  20194120.286   106120846.548 7                        51.250    20194119.886  
  82691582.071 9                        49.500  
  25340122.192   133163225.479 4                        38.000    25340122.012  
 103763537.246 7                        32.500  
  23823365.342   125192661.173 6                        44.750    23823366.042  
  97552744.172 8                        39.500  
  20464819.444   107543379.551 7                        51.250    20464818.444  
  83800047.367 9                        49.250  
  21639121.196   115673521.001 7                        47.750    21639128.136  
  89968321.756 8                        39.250  
  21035310.440   112603706.923 8                        49.750    21035310.900  
  87580675.123 9                        43.500  
  19270986.552   103195269.301 8                        51.250    19270989.812  
  80263031.449 9                        50.250  
  22507181.372   120187129.722 7                        47.250    22507190.392  
  93478931.021 9                        42.000  
  24138047.000   128669382.164 5                        41.000    24138060.420  
 100076253.426 7                        30.500  
  23064987.748   123209047.637 7                        45.500    23064995.928  
  95829300.754 8                        40.750  
  23385136.244   124831439.276 6                        43.500    23385145.244  
  97091162.172 8                        39.750  
  20051209.268   107260451.583 8                        51.500    20051216.528  
  83424816.437 9                        49.000  
  20574128.564   110019115.618 8                        51.000    20574134.004  
  85570459.832 9                        48.000  
 11 05 11  5  6  0.0000000  0 19G11G14G17G19G20G23G24G28G31G32R01R07 0.000000000
                                R08R09R10R16R22R23R24       
  20613118.324   108322690.441 7                        51.250    20613116.424  
  84407297.305 9                        49.250  
  23030056.028   121023772.285 6                        47.000    23030054.648  
  94304234.747 8                        39.000  
  23158387.146   121698139.864 7                        47.250    23158385.826  
  94829721.928 8                        39.750  
  24715779.296   129882283.948 6                        42.750    24715778.816  
 101206963.208 8                        34.250  
  21264323.800   111744798.969 7                        50.500    21264322.040  
  87073867.609 9                        46.250  
  23929837.342   125752143.125 7                        47.250    23929835.982  
  97988673.342 8                        37.500  
  20194368.466   106122150.758 7                        51.500    20194368.066  
  82692598.331 9                        49.500  
  25344611.512   133186817.062 4                        38.500    25344611.312  
 103781920.339 7                        30.000  
  23818556.462   125167390.385 6                        45.500    23818557.142  
  97533052.670 8                        39.000  
  20464252.944   107540402.603 7                        51.000    20464251.944  
  83797727.665 9                        49.000  
  21633345.876   115642648.694 7                        47.500    21633352.816  
  89944309.975 8                        39.500  
  21040796.860   112633075.998 8                        49.750    21040797.320  
  87603517.729 9                        43.250  
  19271188.512   103196350.798 8                        51.250    19271191.772  
  80263872.614 9                        50.250  
  22503268.572   120166235.567 7                        47.250    22503277.572  
  93462680.022 9                        42.250  
  24130338.020   128628289.160 5                        40.000    24130351.440  
 100044292.239 7                        31.000  
  23067467.728   123222295.031 6                        45.000    23067475.888  
  95839604.273 8                        40.750  
  23393668.484   124876984.766 6                        43.250    23393677.464  
  97126586.363 8                        40.250  
  20055378.948   107282756.584 8                        51.500    20055386.228  
  83442164.758 9                        49.000  
  20570174.884   109997973.493 8                        51.000    20570180.324  
  85554015.953 9                        48.000  
 11 05 11  5  6 10.0000000  0 19G11G14G17G19G20G23G24G28G31G32R01R07 0.000000000
                                R08R09R10R16R22R23R24       
  20616132.404   108338529.512 7                        51.250    20616130.504  
  84419639.428 9                        49.000  
  23035243.228   121051031.052 6                        46.750    23035241.828  
  94325475.327 8                        38.250  
  23154174.146   121676000.458 6                        46.750    23154172.826  
  94812470.442 9                        41.750  
  24722943.856   129919933.684 6                        43.500    24722943.356  
 101236300.609 8                        36.000  
  21260056.660   111722375.024 7                        50.500    21260054.900  
  87056394.407 9                        46.250  
  23922787.922   125715098.036 6                        46.750    23922786.542  
  97959807.047 8                        38.000  
  20194626.666   106123507.640 7                        51.250    20194626.286  
  82693655.639 9                        49.750  
  25349106.012   133210435.842 4                        37.750    25349105.752  
 103800324.559 7                        28.500  
  23813755.042   125142158.921 6                        45.000    23813755.742  
  97513391.848 8                        38.750  
  20463695.264   107537471.935 7                        51.000    20463694.264  
  83795444.030 9                        49.250  
  21627577.256   115611812.048 7                        47.500    21627584.176  
  89920325.928 8                        39.250  
  21046288.820   112662474.711 8                        49.750    21046289.280  
  87626383.384 9                        43.500  
  19271401.492   103197491.278 8                        51.250    19271404.752  
  80264759.654 9                        50.250  
  22499370.192   120145418.433 7                        47.500    22499379.172  
  93446488.930 9                        42.000  
  24122631.720   128587210.490 5                        40.250    24122645.160  
 100012342.181 7                        31.500  
  23069963.888   123235628.947 6                        44.500    23069972.028  
  95849975.092 8                        40.750  
  23402203.484   124922544.978 6                        43.500    23402212.464  
  97162022.011 8                        40.250  
  20059564.128   107305144.426 8                        51.750    20059571.428  
  83459577.513 9                        49.000  
  20566236.364   109976912.352 8                        51.000    20566241.784  
  85537635.063 9                        48.000  
 11 05 11  5  6 20.0000000  0 19G11G14G17G19G20G23G24G28G31G32R01R07 0.000000000
                                R08R09R10R16R22R23R24       
  20619155.604   108354416.449 7                        51.250    20619153.704  
  84432018.849 9                        49.000  
  23040436.788   121078323.268 7                        47.250    23040435.388  
  94346741.962 8                        38.000  
  23149969.866   121653906.778 6                        47.000    23149968.506  
  94795254.590 8                        40.250  
  24730107.916   129957580.740 6                        43.000    24730107.416  
 101265635.926 8                        35.750  
  21255795.120   111699980.469 7                        50.250    21255793.360  
  87038944.104 9                        46.750  
  23915739.942   125678060.486 6                        45.500    23915738.542  
  97930946.633 8                        37.000  
  20194893.326   106124908.908 7                        51.250    20194892.946  
  82694747.530 9                        49.500  
  25353604.072   133234073.291 4                        37.750    25353603.772  
 103818743.326 8                        34.500  
  23808959.562   125116958.577 6                        45.250    23808960.262  
  97493755.225 8                        38.750  
  20463144.804   107534579.219 7                        51.000    20463143.784  
  83793189.961 9                        49.000  
  21621813.776   115581002.984 7                        48.000    21621820.696  
  89896363.332 8                        39.500  
  21051784.740   112691894.718 8                        49.500    21051785.220  
  87649265.593 9                        43.500  
  19271623.872   103198682.171 8                        51.250    19271627.152  
  80265685.902 9                        50.250  
  22495484.672   120124669.986 7                        47.250    22495493.652  
  93430351.270 9                        42.000  
  24114926.540   128546137.673 5                        40.000    24114939.980  
  99980396.731 7                        32.500  
  23072474.648   123249041.056 7                        45.250    23072482.808  
  95860406.710 8                        40.500  
  23410739.624   124968111.308 6                        43.500    23410748.604  
  97197462.435 8                        40.750  
  20063763.168   107327606.435 8                        51.500    20063770.488  
  83477047.951 9                        49.000  
  20562311.424   109955923.873 8                        51.000    20562316.824  
  85521310.701 9                        48.000  
 11 05 11  5  6 30.0000000  0 19G11G14G17G19G20G23G24G28G31G32R01R07 0.000000000
                                R08R09R10R16R22R23R24       
  20622191.024   108370367.652 7                        51.250    20622189.124  
  84444448.350 9                        49.250  
  23045639.808   121105665.234 7                        47.500    23045638.428  
  94368047.384 8                        38.500  
  23145777.386   121631875.273 6                        46.750    23145776.006  
  94778087.181 9                        41.500  
  24737274.556   129995241.425 6                        42.750    24737274.056  
 101294981.861 8                        34.750  
  21251542.300   111677631.770 7                        50.500    21251540.540  
  87021529.542 9                        46.500  
  23908696.502   125641046.993 6                        46.250    23908695.102  
  97902105.007 8                        36.000  
  20195171.546   106126370.990 7                        51.250    20195171.186  
  82695886.817 9                        49.750  
  25358108.792   133257745.776 4                        38.750    25358108.392  
 103837189.395 7                        30.750  
  23804173.142   125091805.865 6                        45.500    23804173.842  
  97474155.744 8                        38.250  
  20462604.684   107531740.862 7                        51.000    20462603.664  
  83790978.254 9                        49.000  
  21616058.556   115550238.072 7                        48.000    21616065.496  
  89872435.071 8                        39.750  
  21057287.720   112721352.394 8                        49.500    21057288.200  
  87672177.109 9                        43.500  
  19271858.852   103199940.431 8                        51.250    19271862.112  
  80266664.544 9                        50.250  
  22491615.152   120104007.059 7                        47.000    22491624.112  
  93414280.118 9                        42.250  
  24107225.640   128505087.761 6                        41.250    24107239.100  
  99948469.063 7                        32.500  
  23075003.168   123262548.039 6                        44.250    23075011.328  
  95870912.114 8                        40.000  
  23419280.044   125013700.401 6                        43.000    23419289.024  
  97232920.555 8                        40.250  
  20067979.188   107350159.334 8                        51.750    20067986.548  
  83494589.080 9                        49.000  
  20558403.224   109935025.006 8                        51.000    20558408.624  
  85505056.018 9                        48.000  
 11 05 11  5  6 40.0000000  0 19G11G14G17G19G20G23G24G28G31G32R01R07 0.000000000
                                R08R09R10R16R22R23R24       
  20625235.444   108386366.156 7                        51.250    20625233.564  
  84456914.704 9                        49.000  
  23050849.048   121133039.854 7                        47.250    23050847.668  
  94389378.248 8                        38.000  
  23141593.526   121609889.077 6                        46.750    23141592.146  
  94760955.101 9                        41.250  
  24744440.596   130032898.796 6                        42.500    24744440.056  
 101324325.207 8                        35.500  
  21247294.960   111655311.916 7                        50.500    21247293.200  
  87004137.450 9                        46.250  
  23901654.442   125604040.734 6                        47.000    23901653.022  
  97873268.936 8                        36.750  
  20195458.126   106127876.960 7                        51.500    20195457.766  
  82697060.296 9                        49.500  
  25362616.912   133281436.185 4                        38.500    25362616.492  
 103855649.448 8                        34.250  
  23799392.602   125066684.008 6                        45.750    23799393.282  
  97454580.309 8                        38.750  
  20462071.684   107528939.899 7                        51.000    20462070.644  
  83788795.690 9                        49.250  
  21610308.376   115519500.118 7                        47.750    21610315.336  
  89848527.784 8                        40.000  
  21062794.520   112750830.493 8                        49.500    21062795.000  
  87695104.504 9                        43.500  
  19272103.112   103201248.413 8                        51.250    19272106.372  
  80267681.868 9                        50.250  
  22487758.452   120083412.509 7                        46.750    22487767.412  
  93398262.162 9                        42.000  
  24099525.840   128464043.558 5                        41.000    24099539.300  
  99916545.832 7                        33.000  
  23077546.188   123276132.401 7                        45.250    23077554.348  
  95881477.722 8                        40.000  
  23427821.484   125059294.839 6                        42.750    23427830.444  
  97268382.816 8                        40.000  
  20072208.968   107372785.773 8                        51.750    20072216.348  
  83512187.405 9                        49.000  
  20554508.604   109914198.624 8                        51.000    20554513.984  
  85488857.731 9                        48.000  
 11 05 11  5  6 50.0000000  0 19G11G14G17G19G20G23G24G28G31G32R01R07 0.000000000
                                R08R09R10R16R22R23R24       
  20628290.164   108402418.804 7                        51.250    20628288.284  
  84469423.251 9                        49.000  
  23056065.768   121160453.923 7                        47.250    23056064.408  
  94410739.847 8                        38.750  
  23137419.586   121587955.155 7                        47.250    23137418.226  
  94743863.731 9                        41.250  
  24751607.256   130070559.615 6                        42.750    24751606.716  
 101353671.243 8                        38.000  
  21243054.440   111633027.888 7                        50.500    21243052.700  
  86986773.281 9                        46.500  
  23894615.102   125567048.765 6                        47.000    23894613.642  
  97844444.028 8                        36.750  
  20195754.366   106129433.743 7                        51.250    20195754.026  
  82698273.366 9                        49.500  
  25367129.792   133305151.377 4                        38.500    25367129.332  
 103874128.775 7                        30.500  
  23794619.242   125041599.881 6                        45.250    23794619.922  
  97435034.268 8                        39.250  
  20461547.104   107526183.257 7                        51.000    20461546.064  
  83786647.653 9                        49.000  
  21604564.596   115488796.263 7                        48.000    21604571.556  
  89824647.012 8                        39.750  
  21068306.420   112780335.954 8                        49.500    21068306.880  
  87718053.188 9                        43.000  
  19272358.012   103202613.423 8                        51.250    19272361.292  
  80268743.538 9                        50.250  
  22483915.912   120062893.624 7                        46.750    22483924.872  
  93382303.044 9                        41.750  
  24091828.440   128423012.242 6                        41.750    24091841.920  
  99884632.634 7                        33.000  
  23080105.008   123289801.260 6                        44.500    23080113.168  
  95892109.059 8                        40.000  
  23436365.184   125104901.532 6                        42.500    23436374.164  
  97303854.628 8                        39.750  
  20076453.768   107395492.647 8                        51.750    20076461.168  
  83529848.292 9                        49.000  
  20550628.824   109893451.752 8                        51.000    20550634.204  
  85472721.272 9                        48.000  
 11 05 11  5  7  0.0000000  0 19G11G14G17G19G20G23G24G28G31G32R01R07 0.000000000
                                R08R09R10R16R22R23R24       
  20631355.524   108418527.385 7                        51.250    20631353.644  
  84481975.382 9                        48.750  
  23061290.348   121187909.219 6                        46.750    23061289.008  
  94432133.571 8                        38.000  
  23133255.986   121566075.408 7                        47.500    23133254.626  
  94726814.565 8                        41.000  
  24758774.896   130108225.588 6                        42.750    24758774.316  
 101383021.311 8                        35.000  
  21238821.100   111610781.576 7                        50.500    21238819.360  
  86969438.494 9                        46.000  
  23887578.862   125530072.954 6                        45.500    23887577.362  
  97815631.724 8                        38.500  
  20196060.626   106131043.121 7                        51.250    20196060.286  
  82699527.421 9                        49.750  
  25371647.712   133328893.091 4                        38.250    25371647.212  
 103892628.804 7                        32.250  
  23789853.442   125016555.512 6                        45.500    23789854.102  
  97415519.195 8                        38.750  
  20461031.284   107523472.673 7                        51.000    20461030.264  
  83784535.514 9                        49.000  
  21598827.556   115458128.395 7                        47.500    21598834.496  
  89800794.238 8                        39.500  
  21073823.760   112809870.514 8                        49.250    21073824.200  
  87741024.504 9                        43.000  
  19272623.872   103204037.161 8                        51.250    19272627.152  
  80269850.892 9                        50.250  
  22480087.892   120042452.352 7                        47.250    22480096.852  
  93366404.294 9                        42.000  
  24084133.840   128381995.870 6                        41.250    24084147.340  
  99852731.050 7                        32.250  
  23082679.968   123303556.381 6                        44.750    23082688.128  
  95902807.470 8                        39.750  
  23444911.524   125150522.195 6                        42.750    23444920.484  
  97339337.296 8                        39.500  
  20080713.968   107418281.769 8                        51.500    20080721.388  
  83547573.151 9                        49.000  
  20546764.324   109872786.475 8                        51.000    20546769.684  
  85456648.272 9                        48.000  
 11 05 11  5  7 10.0000000  0 19G11G14G17G19G20G23G24G28G31G32R01R07 0.000000000
                                R08R09R10R16R22R23R24       
  20634430.564   108434686.748 7                        51.250    20634428.684  
  84494567.083 9                        49.000  
  23066521.808   121215400.601 6                        46.750    23066520.448  
  94453555.402 8                        38.000  
  23129101.786   121544244.858 7                        47.750    23129100.406  
  94709803.755 9                        41.250  
  24765942.516   130145891.428 6                        42.500    24765941.916  
 101412371.251 8                        35.250  
  21234593.940   111588567.874 7                        50.250    21234592.240  
  86952129.113 9                        46.250  
  23880544.702   125493108.288 6                        45.750    23880543.222  
  97786828.139 8                        37.750  
  20196375.946   106132700.131 7                        51.250    20196375.606  
  82700818.597 9                        49.750  
  25376169.672   133352656.044 4                        38.750    25376169.212  
 103911145.354 7                        31.250  
  23785094.262   124991545.952 6                        45.750    23785094.902  
  97396031.267 8                        38.250  
  20460523.264   107520803.007 7                        51.000    20460522.224  
  83782455.255 9                        49.250  
  21593096.276   115427491.384 7                        47.500    21593103.216  
  89776965.460 8                        39.750  
  21079345.580   112839429.137 8                        49.250    21079346.000  
  87764014.537 9                        43.000  
  19272899.712   103205514.301 8                        51.250    19272903.012  
  80270999.772 9                        50.250  
  22476273.492   120022083.624 7                        47.250    22476282.412  
  93350561.949 9                        41.750  
  24076441.140   128340989.508 6                        42.250    24076454.620  
  99820837.268 7                        32.000  
  23085270.068   123317392.457 6                        44.000    23085278.228  
  95913568.850 8                        39.500  
  23453459.484   125196151.519 6                        43.000    23453468.444  
  97374826.720 8                        39.500  
  20084988.528   107441147.820 8                        51.750    20084995.968  
  83565357.842 9                        49.000  
  20542914.124   109852197.635 8                        51.000    20542919.464  
  85440634.732 9                        48.000  
 11 05 11  5  7 20.0000000  0 20G11G14G17G19G20G23G24G28G31G32R01R07 0.000000000
                                R08R09R10R16R17R22R23R24    
  20637516.104   108450901.336 7                        51.250    20637514.224  
  84507201.814 9                        49.000  
  23071760.948   121242932.422 6                        46.750    23071759.588  
  94475008.754 8                        38.750  
  23124957.806   121522468.062 7                        47.750    23124956.426  
  94692834.805 8                        40.500  
  24773110.976   130183561.688 6                        42.500    24773110.376  
 101441724.638 8                        35.000  
  21230373.860   111566391.282 7                        50.250    21230372.160  
  86934848.665 9                        46.500  
  23873513.522   125456159.358 6                        46.000    23873512.042  
  97758036.755 8                        36.250  
  20196701.166   106134409.219 7                        51.250    20196700.846  
  82702150.351 9                        49.750  
  25380696.492   133376444.678 5                        39.250    25380696.152  
 103929681.998 7                        32.500  
  23780342.582   124966575.808 6                        45.250    23780343.202  
  97376574.034 8                        39.000  
  20460023.884   107518178.800 7                        51.000    20460022.864  
  83780410.416 9                        49.000  
  21587371.636   115396889.825 7                        47.750    21587378.556  
  89753164.256 8                        39.750  
  21084872.720   112869016.280 8                        49.250    21084873.120  
  87787026.739 9                        43.250  
  19273186.412   103207049.532 8                        51.250    19273189.712  
  80272193.843 9                        50.250  
  22472473.512   120001792.020 7                        47.250    22472482.432  
  93334779.612 9                        42.000  
  24068751.220   128299997.953 6                        41.750    24068764.680  
  99788954.974 7                        32.000  
  23087876.108   123331313.906 6                        44.500    23087884.288  
  95924396.625 8                        39.250  
  24659764.956   131959386.22914                        38.000    24659770.936  
 102635101.28817                        32.250  
  23462009.884   125241793.927 6                        43.750    23462018.844  
  97410326.310 8                        39.500  
  20089278.328   107464095.283 8                        51.750    20089285.768  
  83583205.858 9                        49.000  
  20539079.064   109831689.832 8                        50.750    20539084.404  
  85424684.214 9                        48.000  
 11 05 11  5  7 30.0000000  0 20G11G14G17G19G20G23G24G28G31G32R01R07 0.000000000
                                R08R09R10R16R17R22R23R24    
  20640611.764   108467169.079 7                        51.250    20640609.884  
  84519877.969 9                        49.000  
  23077007.368   121270502.525 6                        47.000    23077006.028  
  94496491.940 8                        38.250  
  23120823.706   121500743.036 6                        47.000    23120822.306  
  94675906.219 9                        41.250  
  24780279.856   130221234.201 5                        42.000    24780279.256  
 101471079.780 7                        32.500  
  21226160.460   111544249.818 7                        50.250    21226158.800  
  86917595.582 9                        46.750  
  23866484.982   125419224.197 6                        46.750    23866483.482  
  97729256.118 8                        36.250  
  20197035.906   106136168.360 7                        51.250    20197035.606  
  82703521.103 9                        49.500  
  25385227.792   133400256.823 5                        40.000    25385227.552  
 103948236.861 7                        30.500  
  23775598.022   124941643.145 6                        45.750    23775598.622  
  97357146.010 8                        39.000  
  20459532.764   107515598.029 7                        51.000    20459531.744  
  83778399.425 9                        49.000  
  21581653.220   115366321.625 7                        48.000    21581660.120  
  89729389.004 8                        39.750  
  21090404.780   112898629.793 8                        49.250    21090405.180  
  87810059.453 9                        43.250  
  19273483.532   103208640.711 8                        51.250    19273486.852  
  80273431.418 9                        50.250  
  22468687.632   119981575.672 7                        47.250    22468696.552  
  93319055.798 9                        42.000  
  24061063.680   128259019.084 6                        42.500    24061077.120  
  99757082.582 7                        32.000  
  23090497.768   123345318.749 6                        44.500    23090505.988  
  95935289.268 8                        39.000  
  24651671.256   131916071.277 3                        36.750    24651676.596  
 102601411.889 7                        31.250  
  23470562.344   125287447.205 6                        43.250    23470571.304  
  97445834.377 8                        39.250  
  20093582.948   107487122.030 8                        51.500    20093590.368  
  83601115.538 9                        49.000  
  20535258.844   109811261.399 8                        51.000    20535264.184  
  85408795.437 9                        48.000  
 11 05 11  5  7 40.0000000  0 20G11G14G17G19G20G23G24G28G31G32R01R07 0.000000000
                                R08R09R10R16R17R22R23R24    
  20643717.644   108483490.546 7                        51.500    20643715.764  
  84532595.982 9                        48.750  
  23082261.188   121298111.464 6                        47.000    23082259.848  
  94518005.387 8                        38.000  
  23116699.566   121479070.510 6                        47.000    23116698.166  
  94659018.547 8                        41.000  
  24787449.256   130258909.477 6                        42.250    24787448.636  
 101500437.070 8                        34.750  
  21221953.860   111522144.118 7                        50.500    21221952.220  
  86900370.365 9                        46.500  
  23859459.182   125382303.461 6                        46.250    23859457.662  
  97700486.716 8                        37.000  
  20197380.306   106137978.152 7                        51.250    20197380.006  
  82704931.326 9                        49.750  
  25389763.712   133424093.083 5                        40.250    25389763.552  
 103966810.624 7                        27.000  
  23770860.742   124916748.668 6                        45.000    23770861.342  
  97337747.743 8                        39.250  
  20459050.024   107513061.252 7                        51.000    20459049.024  
  83776422.714 9                        49.250  
  21575941.140   115335787.428 7                        47.750    21575948.060  
  89705640.196 8                        39.750  
  21095941.780   112928269.790 8                        49.250    21095942.180  
  87833112.773 9                        43.250  
  19273791.232   103210288.369 8                        51.250    19273794.532  
  80274712.926 9                        50.250  
  22464916.012   119961435.378 7                        47.250    22464924.892  
  93303391.135 9                        42.000  
  24053378.660   128218053.768 5                        41.000    24053392.080  
  99725220.683 7                        31.250  
  23093135.128   123359407.462 6                        44.750    23093143.368  
  95946247.160 8                        39.250  
  24643579.636   131872771.537 3                        37.000    24643584.916  
 102567734.315 7                        31.500  
  23479116.924   125333111.819 6                        42.750    23479125.884  
  97481351.226 8                        38.750  
  20097902.448   107510228.432 8                        51.500    20097909.888  
  83619087.172 9                        49.000  
  20531453.544   109790912.870 8                        50.750    20531458.904  
  85392968.804 9                        48.000  
 11 05 11  5  7 50.0000000  0 20G11G14G17G19G20G23G24G28G31G32R01R07 0.000000000
                                R08R09R10R16R17R22R23R24    
  20646833.604   108499864.969 7                        51.250    20646831.724  
  84545355.264 9                        48.750  
  23087522.246   121325758.466 6                        46.750    23087520.886  
  94539548.489 8                        37.500  
  23112585.266   121457449.857 6                        47.000    23112583.906  
  94642171.291 8                        41.000  
  24794619.016   130296586.757 6                        42.250    24794618.396  
 101529795.940 8                        34.000  
  21217753.960   111500073.526 7                        50.500    21217752.320  
  86883172.505 9                        46.250  
  23852436.022   125345396.551 6                        46.000    23852434.482  
  97671728.113 8                        36.250  
  20197734.206   106139837.930 7                        51.250    20197733.906  
  82706380.504 9                        49.750  
  25394304.032   133447952.497 5                        40.250    25394303.872  
 103985402.375 6                        26.000  
  23766130.582   124891891.640 6                        45.250    23766131.182  
  97318378.674 8                        38.750  
  20458575.524   107510567.817 7                        51.000    20458574.544  
  83774479.778 9                        49.250  
  21570235.340   115305286.745 7                        47.750    21570242.260  
  89681917.462 8                        39.500  
  21101483.680   112957936.103 8                        49.500    21101484.080  
  87856186.560 9                        43.250  
  19274109.272   103211991.593 8                        51.250    19274112.612  
  80276037.653 9                        50.250  
  22461158.492   119941370.434 7                        47.250    22461167.352  
  93287785.099 9                        42.000  
  24045696.100   128177101.544 6                        41.750    24045709.520  
  99693369.011 7                        31.250  
  23095788.048   123373579.239 6                        44.750    23095796.308  
  95957269.637 8                        39.000  
  24635490.936   131829486.953 3                        36.500    24635496.116  
 102534068.518 7                        30.750  
  23487673.484   125378787.027 6                        43.000    23487682.444  
  97516876.323 8                        38.500  
  20102236.748   107533413.843 8                        51.500    20102244.148  
  83637120.255 9                        48.750  
  20527663.124   109770643.877 8                        51.000    20527668.504  
  85377204.033 9                        48.250  
 11 05 11  5  8  0.0000000  0 20G11G14G17G19G20G23G24G28G31G32R01R07 0.000000000
                                R08R09R10R16R17R22R23R24    
  20649959.944   108516293.928 7                        51.250    20649958.044  
  84558157.040 9                        48.750  
  23092790.826   121353445.027 6                        47.000    23092789.486  
  94561122.416 8                        37.500  
  23108481.166   121435882.789 7                        47.500    23108479.846  
  94625365.798 8                        40.750  
  24801789.476   130334267.665 6                        42.750    24801788.856  
 101559157.640 8                        34.250  
  21213561.020   111478039.669 7                        50.250    21213559.420  
  86866003.270 9                        46.500  
  23845415.802   125308505.135 6                        46.000    23845414.282  
  97642981.582 8                        37.000  
  20198097.926   106141749.337 7                        51.250    20198097.646  
  82707869.907 9                        49.750  
  25398849.072   133471836.746 5                        39.250    25398848.912  
 104004013.474 4                        12.750  
  23761407.882   124867073.908 6                        45.500    23761408.502  
  97299040.195 8                        38.750  
  20458109.544   107508119.128 7                        51.000    20458108.584  
  83772571.708 9                        49.250  
  21564536.080   115274821.065 7                        48.000    21564543.000  
  89658221.937 8                        39.750  
  21107030.760   112987630.043 8                        49.250    21107031.160  
  87879281.830 9                        43.250  
  19274438.092   103213752.339 8                        51.250    19274441.432  
  80277407.121 9                        50.250  
  22457415.432   119921382.726 7                        47.750    22457424.292  
  93272239.110 9                        42.000  
  24038016.260   128136163.923 5                        41.000    24038029.700  
  99661528.658 7                        30.750  
  23098456.828   123387835.650 6                        44.500    23098465.068  
  95968357.959 8                        39.250  
  24627405.136   131786218.319 3                        36.000    24627410.296  
 102500415.119 7                        32.000  
  23496232.304   125424474.242 6                        43.000    23496241.284  
  97552410.770 8                        38.500  
  20106586.068   107556679.770 8                        51.750    20106593.468  
  83655215.961 9                        48.750  
  20523887.804   109750455.640 8                        50.750    20523893.184  
  85361502.069 9                        48.250  
 11 05 11  5  8 10.0000000  0 20G11G14G17G19G20G23G24G28G31G32R01R07 0.000000000
                                R08R09R10R16R17R22R23R24    
  20653096.304   108532775.548 7                        51.250    20653094.404  
  84570999.848 9                        48.750  
  23098066.566   121381169.252 6                        46.500    23098065.226  
  94582725.708 8                        37.000  
  23104386.946   121414367.571 7                        48.000    23104385.646  
  94608600.681 8                        40.750  
  24808960.236   130371950.058 6                        42.250    24808959.636  
 101588520.462 8                        35.000  
  21209374.760   111456040.787 7                        50.500    21209373.160  
  86848861.293 9                        46.250  
  23838398.162   125271627.385 6                        46.000    23838396.682  
  97614245.689 8                        36.000  
  20198471.146   106143710.555 7                        51.250    20198470.866  
  82709398.122 9                        49.500  
  25403398.472   133495743.954 5                        39.750    25403398.252  
 104022642.459 6                        20.500  
  23756692.342   124842293.757 6                        45.000    23756692.982  
  97279731.023 8                        40.250  
  20457651.764   107505713.473 7                        51.000    20457650.804  
  83770697.174 9                        49.000  
  21558843.060   115244388.637 7                        47.750    21558849.960  
  89634552.279 8                        39.750  
  21112582.560   113017349.226 8                        49.250    21112582.940  
  87902396.735 9                        43.250  
  19274777.252   103215568.603 8                        51.250    19274780.612  
  80278819.766 9                        50.250  
  22453686.452   119901470.285 7                        47.750    22453695.352  
  93256751.681 9                        42.000  
  24030338.920   128095239.543 5                        40.750    24030352.400  
  99629698.628 7                        30.250  
  23101141.088   123402174.771 6                        44.250    23101149.348  
  95979510.592 8                        39.750  
  24619321.476   131742961.35112                        33.500    24619326.936  
 102466771.17517                        30.250  
  23504793.004   125470171.581 6                        42.750    23504802.004  
  97587953.093 8                        39.000  
  20110950.068   107580024.141 8                        51.750    20110957.468  
  83673372.678 9                        48.750  
  20520127.364   109730347.014 8                        51.000    20520132.764  
  85345862.024 9                        48.000  
 11 05 11  5  8 20.0000000  0 20G11G14G17G19G20G23G24G28G31G32R01R07 0.000000000
                                R08R09R10R16R17R22R23R24    
  20656242.764   108549310.236 7                        51.250    20656240.844  
  84583884.006 9                        49.000  
  23103349.526   121408931.373 6                        46.250    23103348.186  
  94604358.491 8                        38.250  
  23100302.666   121392904.603 7                        48.000    23100301.366  
  94591876.280 8                        40.750  
  24816131.376   130409634.433 6                        42.250    24816130.756  
 101617884.852 8                        36.750  
  21205195.240   111434077.306 7                        50.250    21205193.660  
  86831746.890 9                        46.750  
  23831383.242   125234763.923 6                        46.250    23831381.782  
  97585520.914 8                        36.000  
  20198853.886   106145721.944 7                        51.250    20198853.626  
  82710965.435 9                        49.500  
  25407952.252   133519674.211 4                        37.500    25407952.032  
 104041289.417 7                        31.750  
  23751984.062   124817551.759 6                        45.500    23751984.702  
  97260451.571 8                        39.000  
  20457202.244   107503351.205 7                        51.000    20457201.284  
  83768856.442 9                        49.000  
  21553156.340   115213989.943 7                        47.750    21553163.220  
  89610908.854 8                        40.000  
  21118139.320   113047095.043 8                        49.250    21118139.720  
  87925532.356 9                        43.500  
  19275126.852   103217440.652 8                        51.250    19275130.212  
  80280275.805 9                        50.250  
  22449971.712   119881633.839 7                        48.000    22449980.612  
  93241323.334 9                        42.250  
  24022664.120   128054328.655 5                        39.750    24022677.580  
  99597879.071 7                        29.750  
  23103840.928   123416596.976 6                        44.750    23103849.168  
  95990727.831 8                        39.500  
  24611241.016   131699722.911 1                        32.000    24611246.696  
 102433141.269 7                        31.250  
  23513355.644   125515879.276 6                        42.500    23513364.684  
  97623503.456 8                        39.000  
  20115328.828   107603447.437 8                        51.750    20115336.208  
  83691590.786 9                        48.750  
  20516381.844   109710318.158 8                        50.750    20516387.244  
  85330284.028 9                        48.250  
 11 05 11  5  8 30.0000000  0 20G11G14G17G19G20G23G24G28G31G32R01R07 0.000000000
                                R08R09R10R16R17R22R23R24    
  20659399.404   108565898.423 7                        51.250    20659397.484  
  84596809.856 9                        48.750  
  23108639.766   121436731.843 6                        46.500    23108638.446  
  94626021.199 8                        38.750  
  23096228.486   121371494.498 7                        48.000    23096227.126  
  94575193.075 9                        41.500  
  24823302.916   130447320.975 5                        42.000    24823302.316  
 101647250.940 8                        35.250  
  21201022.540   111412149.722 7                        50.500    21201020.980  
  86814660.467 9                        46.250  
  23824371.162   125197915.234 6                        46.500    23824369.682  
  97556807.649 8                        36.250  
  20199246.286   106147784.012 7                        51.500    20199246.026  
  82712572.237 9                        49.500  
  25412510.472   133543627.877 4                        37.500    25412510.372  
 104059954.617 6                        22.750  
  23747283.142   124792848.450 6                        45.250    23747283.782  
  97241202.272 8                        38.250  
  20456761.044   107501032.781 7                        51.000    20456760.104  
  83767049.879 9                        49.250  
  21547476.000   115183625.353 7                        47.750    21547482.840  
  89587291.966 8                        40.000  
  21123701.020   113076867.216 8                        49.250    21123701.420  
  87948688.482 9                        43.250  
  19275486.932   103219368.889 8                        51.250    19275490.292  
  80281775.542 9                        50.250  
  22446271.312   119861873.875 7                        47.750    22446280.212  
  93225954.494 9                        42.250  
  24014992.060   128013432.352 5                        39.250    24015005.500  
  99566070.868 7                        30.500  
  23106556.388   123431102.623 6                        44.250    23106564.628  
  96002010.007 8                        39.500  
  24603163.556   131656500.442 1                        32.250    24603169.536  
 102399523.786 7                        30.750  
  23521920.284   125561597.621 6                        42.500    23521929.324  
  97659062.097 8                        39.250  
  20119722.368   107626949.930 8                        51.500    20119729.748  
  83709870.484 9                        48.750  
  20512651.344   109690369.725 8                        50.750    20512656.784  
  85314768.580 9                        48.250  
 11 05 11  5  8 40.0000000  0 20G11G14G17G19G20G23G24G28G31G32R01R07 0.000000000
                                R08R09R10R16R17R22R23R24    
  20662566.164   108582539.743 7                        51.250    20662564.224  
  84609777.107 9                        48.750  
  23113937.226   121464570.254 6                        46.250    23113935.946  
  94647713.441 8                        37.500  
  23092164.346   121350137.077 7                        47.500    23092162.926  
  94558550.917 9                        41.500  
  24830474.816   130485009.393 5                        41.750    24830474.236  
 101676618.473 8                        35.500  
  21196856.600   111390257.702 7                        50.500    21196855.060  
  86797601.745 9                        46.500  
  23817361.822   125161081.045 6                        46.000    23817360.342  
  97528105.696 8                        37.000  
  20199648.286   106149896.507 7                        51.500    20199648.026  
  82714218.334 9                        49.500  
  25417073.112   133567604.662 5                        39.250    25417073.092  
 104078637.789 7                        30.250  
  23742589.562   124768183.602 6                        45.500    23742590.182  
  97221982.930 8                        39.250  
  20456328.144   107498757.905 7                        51.000    20456327.204  
  83765277.245 9                        49.000  
  21541802.000   115153294.790 7                        47.750    21541808.860  
  89563701.545 8                        39.750  
  21129267.540   113106665.185 8                        49.250    21129267.960  
  87971864.672 9                        43.250  
  19275857.432   103221352.942 8                        51.250    19275860.812  
  80283318.695 9                        50.250  
  22442585.212   119842190.315 7                        48.250    22442594.112  
  93210645.048 9                        42.500  
  24007322.620   127972550.129 5                        40.500    24007336.080  
  99534273.668 7                        30.750  
  23109287.408   123445691.375 6                        44.750    23109295.648  
  96013356.787 8                        39.750  
  24595088.916   131613288.51412                        34.250    24595095.236  
 102365917.39617                        31.750  
  23530486.864   125607326.251 6                        43.000    23530495.904  
  97694628.748 8                        40.250  
  20124130.648   107650531.204 8                        51.750    20124138.008  
  83728211.463 9                        48.750  
  20508935.844   109670501.448 8                        50.750    20508941.324  
  85299315.475 9                        48.250  
 11 05 11  5  8 50.0000000  0 19G11G14G17G19G20G23G24G28G31G32R01R07 0.000000000
                                R08R09R10R16R22R23R24       
  20665743.204   108599235.127 7                        51.500    20665741.264  
  84622786.485 9                        48.750  
  23119242.046   121492447.379 6                        46.500    23119240.786  
  94669435.868 8                        39.000  
  23088110.406   121328833.237 6                        47.000    23088108.946  
  94541950.528 9                        41.750  
  24837647.256   130522700.683 5                        41.500    24837646.696  
 101705988.272 7                        30.250  
  21192697.660   111368402.306 7                        50.250    21192696.120  
  86780571.575 9                        46.750  
  23810355.422   125124262.359 6                        45.750    23810353.982  
  97499415.856 8                        37.250  
  20200060.066   106152060.355 7                        51.250    20200059.786  
  82715904.445 9                        49.500  
  25421640.272   133591605.271 4                        39.000    25421640.332  
 104097339.642 7                        27.750  
  23737903.482   124743558.256 6                        45.500    23737904.122  
  97202794.384 8                        38.500  
  20455903.704   107496527.424 7                        51.000    20455902.784  
  83763539.209 9                        49.250  
  21536134.540   115122999.105 7                        47.750    21536141.400  
  89540138.246 8                        40.000  
  21134839.060   113136489.930 8                        49.250    21134839.480  
  87995061.673 9                        43.500  
  19276238.592   103223393.916 8                        51.250    19276241.952  
  80284906.115 9                        50.250  
  22438913.592   119822584.149 7                        47.750    22438922.532  
  93195395.824 9                        42.250  
  23999656.080   127931683.226 5                        40.500    23999669.500  
  99502488.326 7                        31.750  
  23112034.148   123460364.050 6                        43.750    23112042.408  
  96024768.870 8                        39.500  
  23539055.524   125653066.009 6                        42.500    23539064.584  
  97730204.039 8                        39.750  
  20128553.828   107674192.104 8                        51.500    20128561.168  
  83746614.370 9                        48.750  
  20505235.564   109650714.519 8                        51.000    20505241.084  
  85283925.642 9                        48.250  
 11 05 11  5  9  0.0000000  0 20G11G14G17G19G20G23G24G28G31G32R01R07 0.000000000
                                R08R09R10R16R17R22R23R24    
  20668930.104   108615982.387 7                        51.250    20668928.164  
  84635836.289 9                        48.750  
  23124553.826   121520361.040 6                        46.250    23124552.606  
  94691186.745 8                        37.500  
  23084066.246   121307580.954 6                        47.000    23084064.786  
  94525390.313 9                        41.250  
  24844819.816   130560392.459 5                        41.000    24844819.256  
 101735358.418 8                        33.500  
  21188545.260   111346581.389 7                        50.250    21188543.740  
  86763568.271 9                        46.750  
  23803351.602   125087457.197 6                        46.250    23803350.182  
  97470736.519 8                        38.000  
  20200481.206   106154273.437 7                        51.250    20200480.946  
  82717628.922 9                        49.750  
  25426211.552   133615627.567 4                        37.250    25426211.652  
 104116058.239 7                        32.750  
  23733224.542   124718970.421 6                        45.000    23733225.182  
  97183635.054 8                        38.500  
  20455487.304   107494339.235 7                        51.000    20455486.384  
  83761834.125 9                        49.000  
  21530473.220   115092736.177 7                        48.000    21530480.080  
  89516600.422 8                        40.000  
  21140415.200   113166339.401 8                        49.500    21140415.640  
  88018277.924 9                        43.500  
  19276629.932   103225489.578 8                        51.250    19276633.312  
  80286536.071 9                        50.250  
  22435256.112   119803053.378 7                        48.000    22435265.052  
  93180205.249 9                        42.500  
  23991992.020   127890829.574 6                        41.500    23992005.440  
  99470713.327 7                        32.000  
  23114796.208   123475118.473 6                        44.000    23114804.448  
  96036244.514 8                        40.250  
  24578949.580   131526922.30312                        34.750    24578956.000  
 102298744.46617                        30.500  
  23547625.824   125698814.487 6                        42.750    23547634.904  
  97765786.122 8                        39.500  
  20132991.468   107697930.453 8                        51.750    20132998.808  
  83765077.512 9                        48.750  
  20501550.124   109631006.922 8                        50.750    20501555.664  
  85268597.507 9                        48.250  
 11 05 11  5  9 10.0000000  0 20G11G14G17G19G20G23G24G28G31G32R01R07 0.000000000
                                R08R09R10R16R17R22R23R24    
  20672127.164   108632783.016 7                        51.250    20672125.224  
  84648927.678 9                        48.750  
  23129872.846   121548312.718 6                        46.750    23129871.646  
  94712967.268 8                        37.500  
  23080032.208   121286381.941 6                        47.000    23080030.788  
  94508871.606 9                        42.000  
  24851992.736   130598086.232 5                        41.250    24851992.196  
 101764730.134 8                        34.750  
  21184399.720   111324796.516 7                        50.500    21184398.220  
  86746593.050 9                        46.750  
  23796350.682   125050667.345 6                        46.250    23796349.302  
  97442069.106 8                        36.750  
  20200912.006   106156537.353 7                        51.250    20200911.746  
  82719393.009 9                        49.750  
  25430787.212   133639672.886 4                        37.500    25430787.312  
 104134794.869 8                        34.750  
  23728553.042   124694421.707 6                        45.500    23728553.702  
  97164506.223 8                        38.500  
  20455079.244   107492194.917 7                        51.000    20455078.324  
  83760163.228 9                        49.250  
  21524818.300   115062507.640 7                        48.000    21524825.200  
  89493089.352 8                        40.000  
  21145996.340   113196215.566 8                        49.500    21145996.800  
  88041514.925 9                        43.250  
  19277031.812   103227641.501 8                        51.500    19277035.172  
  80288209.790 9                        50.250  
  22431613.052   119783599.782 7                        48.000    22431622.012  
  93165074.679 9                        42.500  
  23984330.820   127849991.131 6                        41.250    23984344.240  
  99438950.118 7                        32.250  
  23117573.828   123489956.141 6                        43.750    23117582.088  
  96047784.912 8                        40.500  
  24570884.440   131483763.457 3                        35.500    24570890.740  
 102265176.477 7                        29.500  
  23556198.044   125744573.238 6                        42.500    23556207.144  
  97801376.203 8                        40.000  
  20137443.848   107721747.652 8                        51.750    20137451.188  
  83783601.987 9                        48.750  
  20497879.804   109611380.171 8                        51.000    20497885.384  
  85253332.257 9                        48.250  
 11 05 11  5  9 20.0000000  0 20G11G14G17G19G20G23G24G28G31G32R01R07 0.000000000
                                R08R09R10R16R17R22R23R24    
  20675334.264   108649636.412 7                        51.250    20675332.304  
  84662060.180 9                        49.000  
  23135198.986   121576301.793 6                        46.750    23135197.826  
  94734776.925 8                        37.750  
  23076008.208   121265235.713 7                        47.250    23076006.808  
  94492394.028 8                        40.750  
  24859165.916   130635781.374 5                        41.500    24859165.376  
 101794102.912 7                        31.500  
  21180260.980   111303047.314 7                        50.500    21180259.500  
  86729645.618 9                        46.750  
  23789352.622   125013892.250 6                        45.750    23789351.222  
  97413413.184 8                        37.250  
  20201352.406   106158851.608 7                        51.500    20201352.146  
  82721196.320 9                        49.500  
  25435367.152   133663740.730 4                        38.000    25435367.232  
 104153549.077 7                        32.000  
  23723888.902   124669911.698 6                        45.000    23723889.582  
  97145407.544 8                        39.750  
  20454679.444   107490093.907 7                        51.000    20454678.524  
  83758526.077 9                        49.250  
  21519169.760   115032313.114 7                        48.000    21519176.700  
  89469604.717 8                        40.000  
  21151582.180   113226116.994 8                        49.250    21151582.660  
  88064771.576 9                        43.250  
  19277444.012   103229848.867 8                        51.250    19277447.392  
  80289926.623 9                        50.250  
  22427984.352   119764222.865 7                        48.000    22427993.332  
  93150003.761 9                        42.500  
  23976672.344   127809167.299 6                        42.500    23976685.784  
  99407198.315 8                        33.500  
  23120366.948   123504876.487 6                        44.750    23120375.228  
  96059389.585 8                        40.250  
  24562822.200   131440620.677 3                        36.250    24562828.480  
 102231620.978 7                        30.000  
  23564772.064   125790341.536 6                        42.750    23564781.124  
  97836973.698 8                        39.750  
  20141910.868   107745643.154 8                        51.500    20141918.208  
  83802187.361 9                        48.750  
  20494224.584   109591834.085 8                        50.750    20494230.164  
  85238129.740 9                        48.250  
 11 05 11  5  9 30.0000000  0 20G11G14G17G19G20G23G24G28G31G32R01R07 0.000000000
                                R08R09R10R16R17R22R23R24    
  20678551.804   108666544.685 7                        51.250    20678549.864  
  84675235.444 9                        49.000  
  23140532.626   121604330.258 6                        46.000    23140531.486  
  94756617.279 8                        39.750  
  23071994.628   121244144.310 7                        47.500    23071993.248  
  94475959.170 9                        41.500  
  24866339.736   130673479.837 5                        40.750    24866339.216  
 101823478.293 8                        33.500  
  21176129.400   111281335.749 7                        50.500    21176127.920  
  86712727.523 9                        46.750  
  23782357.702   124977133.928 6                        45.500    23782356.322  
  97384770.364 8                        36.750  
  20201802.766   106161218.202 7                        51.500    20201802.506  
  82723040.407 9                        49.500  
  25439951.752   133687832.953 2                        34.000    25439951.792  
 104172322.137 7                        31.250  
  23719232.562   124645442.571 6                        46.000    23719233.242  
  97126340.729 8                        38.250  
  20454288.264   107488038.258 7                        51.000    20454287.344  
  83756924.277 9                        49.250  
  21513527.960   115002154.612 7                        48.000    21513534.920  
  89446148.119 8                        40.000  
  21157173.200   113256046.073 8                        49.750    21157173.680  
  88088049.737 9                        43.250  
  19277867.012   103232114.047 8                        51.250    19277870.392  
  80291688.428 9                        50.250  
  22424370.452   119744924.892 7                        48.000    22424379.452  
  93134994.228 9                        42.500  
  23969017.084   127768360.511 6                        41.250    23969030.524  
  99375459.752 8                        33.250  
  23123175.908   123519881.380 6                        44.750    23123184.228  
  96071060.079 8                        40.250  
  24554763.400   131397496.210 3                        36.750    24554769.680  
 102198079.732 7                        29.500  
  23573348.244   125836121.410 6                        42.500    23573357.284  
  97872580.204 8                        39.750  
  20146392.868   107769618.800 8                        51.750    20146400.208  
  83820835.071 9                        48.750  
  20490584.804   109572370.701 8                        51.000    20490590.424  
  85222991.555 9                        48.250  
 11 05 11  5  9 40.0000000  0 20G11G14G17G19G20G23G24G28G31G32R01R07 0.000000000
                                R08R09R10R16R17R22R23R24    
  20681779.104   108683504.148 7                        51.250    20681777.144  
  84688450.600 9                        48.750  
  23145873.046   121632394.415 6                        46.250    23145871.946  
  94778485.424 8                        37.500  
  23067990.848   121223104.354 7                        48.000    23067989.488  
  94459564.400 8                        40.500  
  24873513.496   130711177.943 5                        40.750    24873512.976  
 101852853.387 8                        33.750  
  21172004.300   111259658.270 7                        50.500    21172002.840  
  86695835.985 9                        46.750  
  23775365.342   124940388.947 6                        46.250    23775363.982  
  97356137.934 8                        38.000  
  20202262.406   106163633.559 7                        51.500    20202262.126  
  82724922.503 9                        49.750  
  25444540.272   133711945.935 3                        36.750    25444540.452  
 104191111.605 7                        27.250  
  23714583.322   124621010.819 6                        45.250    23714584.042  
  97107303.011 8                        39.000  
  20453905.004   107486024.274 7                        51.000    20453904.084  
  83755354.937 9                        49.250  
  21507892.240   114972028.582 7                        48.000    21507899.200  
  89422716.774 8                        40.000  
  21162768.640   113285998.781 8                        49.750    21162769.120  
  88111346.275 9                        43.250  
  19278300.092   103234433.096 8                        51.500    19278303.472  
  80293492.129 9                        50.250  
  22420770.632   119725702.121 7                        47.750    22420779.632  
  93120043.208 9                        42.500  
  23961364.324   127727567.101 5                        41.000    23961377.744  
  99343731.552 8                        33.500  
  23126000.008   123534967.189 6                        45.000    23126008.348  
  96082793.481 8                        40.000  
  24546707.300   131354386.124 3                        36.750    24546713.540  
 102164549.653 7                        29.250  
  23581925.844   125881909.029 6                        43.750    23581934.864  
  97908192.717 8                        40.500  
  20150889.168   107793670.850 8                        51.750    20150896.508  
  83839542.211 9                        48.750  
  20486959.844   109552986.489 8                        50.750    20486965.484  
  85207914.941 9                        48.250  
 11 05 11  5  9 50.0000000  0 20G11G14G17G19G20G23G24G28G31G32R01R07 0.000000000
                                R08R09R10R16R17R22R23R24    
  20685016.484   108700516.674 7                        51.250    20685014.524  
  84701707.099 9                        48.500  
  23151220.606   121660496.093 6                        46.250    23151219.546  
  94800382.819 8                        38.250  
  23063997.248   121202117.834 7                        47.750    23063995.908  
  94443211.259 9                        41.250  
  24880687.556   130748877.580 5                        39.500    24880686.976  
 101882229.644 7                        32.750  
  21167886.100   111238016.902 7                        50.500    21167884.620  
  86678972.583 9                        47.000  
  23768375.902   124903659.323 6                        47.000    23768374.562  
  97327517.462 8                        36.750  
  20202731.706   106166099.689 7                        51.250    20202731.426  
  82726844.155 9                        49.750  
  25449133.132   133736081.580 4                        37.500    25449133.372  
 104209918.521 7                        32.750  
  23709941.602   124596618.557 6                        45.750    23709942.342  
  97088296.089 8                        39.250  
  20453530.064   107484053.898 7                        51.000    20453529.144  
  83753819.581 9                        49.000  
  21502262.980   114941937.033 7                        48.250    21502269.940  
  89399312.234 8                        40.000  
  21168368.880   113315977.256 8                        49.500    21168369.360  
  88134662.848 9                        43.250  
  19278743.592   103236808.010 8                        51.250    19278746.972  
  80295339.284 9                        50.250  
  22417185.312   119706556.851 7                        47.750    22417194.332  
  93105152.441 9                        42.500  
  23953714.444   127686789.200 5                        41.000    23953727.904  
  99312015.483 7                        32.500  
  23128839.628   123550135.774 6                        44.750    23128847.988  
  96094591.268 8                        40.250  
  24538654.300   131311292.777 3                        37.000    24538660.500  
 102131032.596 7                        30.250  
  23590505.204   125927706.142 6                        44.000    23590514.264  
  97943812.636 8                        40.750  
  20155400.108   107817801.289 8                        51.500    20155407.448  
  83858310.316 9                        48.750  
  20483350.084   109533683.568 8                        50.750    20483355.724  
  85192901.554 9                        48.250  
 11 05 11  5 10  0.0000000  0 20G11G14G17G19G20G23G24G28G31G32R01R07 0.000000000
                                R08R09R10R16R17R22R23R24    
  20688263.922   108717582.031 7                        51.250    20688261.962  
  84715004.769 9                        48.750  
  23156575.246   121688634.982 6                        46.500    23156574.226  
  94822309.212 8                        38.250  
  23060013.788   121181184.510 7                        47.250    23060012.448  
  94426899.574 9                        41.750  
  24887861.834   130786578.358 5                        39.250    24887861.234  
 101911606.810 8                        33.250  
  21163774.700   111216411.428 7                        50.500    21163773.240  
  86662137.151 9                        47.000  
  23761389.362   124866944.894 6                        47.000    23761388.042  
  97298908.827 8                        36.750  
  20203210.626   106168616.339 7                        51.500    20203210.326  
  82728805.178 9                        49.500  
  25453730.212   133760239.396 3                        36.000    25453730.492  
 104228742.736 7                        31.000  
  23705307.362   124572265.617 6                        45.500    23705308.122  
  97069319.790 8                        38.250  
  20453163.384   107482126.903 7                        51.000    20453162.444  
  83752318.022 9                        49.000  
  21496640.100   114911879.672 7                        47.750    21496647.080  
  89375934.303 8                        40.250  
  21173973.940   113345981.429 8                        49.750    21173974.420  
  88157999.418 9                        43.250  
  19279197.412   103239238.314 8                        51.250    19279200.812  
  80297229.514 9                        50.250  
  22413614.472   119687488.842 7                        47.500    22413623.492  
  93090321.790 9                        42.000  
  23946067.484   127646026.792 5                        40.500    23946080.964  
  99280311.436 7                        32.500  
  23131694.688   123565386.904 6                        44.250    23131703.048  
  96106453.245 8                        40.250  
  24530604.480   131268216.336 4                        38.000    24530610.620  
 102097528.663 7                        31.750  
  23599086.344   125973512.612 6                        43.750    23599095.404  
  97979439.808 8                        40.250  
  20159925.648   107842009.796 8                        51.500    20159932.988  
  83877139.138 9                        48.750  
  20479755.484   109514461.624 8                        50.750    20479761.124  
  85177951.151 9                        48.250  
 11 05 11  5 10 10.0000000  0 20G11G14G17G19G20G23G24G28G31G32R01R07 0.000000000
                                R08R09R10R16R17R22R23R24    
  20691521.682   108734701.581 7                        51.250    20691519.722  
  84728344.668 9                        48.750  
  23161937.226   121716812.400 6                        46.750    23161936.226  
  94844265.617 8                        37.500  
  23056040.748   121160306.010 6                        46.750    23056039.388  
  94410630.609 9                        41.250  
  24895036.594   130824281.745 5                        40.000    24895035.994  
 101940986.040 8                        34.250  
  21159670.440   111194843.304 7                        50.500    21159668.960  
  86645330.823 9                        47.000  
  23754406.022   124830247.229 6                        46.250    23754404.702  
  97270313.245 8                        36.250  
  20203699.446   106171185.010 7                        51.250    20203699.126  
  82730806.735 9                        49.750  
  25458331.732   133784420.717 4                        38.500    25458332.072  
 104247585.353 7                        27.750  
  23700680.942   124547953.594 6                        45.500    23700681.662  
  97050375.394 8                        38.000  
  20452805.204   107480244.694 7                        51.000    20452804.264  
  83750851.370 9                        49.250  
  21491023.940   114881858.193 7                        48.000    21491030.920  
  89352584.273 8                        40.000  
  21179584.000   113376012.404 8                        49.500    21179584.460  
  88181356.839 9                        43.000  
  19279661.952   103241725.805 8                        51.250    19279665.352  
  80299164.234 9                        50.250  
  22410058.412   119668499.749 7                        47.500    22410067.432  
  93075552.504 9                        42.000  
  23938423.724   127605281.492 5                        40.500    23938437.224  
  99248620.693 7                        32.500  
  23134565.448   123580721.895 7                        45.500    23134573.828  
  96118380.440 9                        41.250  
  24522558.060   131225158.168 3                        36.000    24522564.160  
 102064038.972 7                        30.500  
  23607669.464   126019329.660 6                        43.750    23607678.524  
  98015075.221 8                        40.000  
  20164466.008   107866297.634 8                        51.750    20164473.368  
  83896029.664 9                        48.750  
  20476176.344   109495322.447 8                        50.750    20476182.004  
  85163065.131 9                        48.250  
 11 05 11  5 10 20.0000000  0 20G11G14G17G19G20G23G24G28G31G32R01R07 0.000000000
                                R08R09R10R16R17R22R23R24    
  20694789.362   108751873.353 7                        51.250    20694787.422  
  84741725.253 9                        49.000  
  23167306.146   121745026.300 6                        46.750    23167305.186  
  94866250.464 8                        37.000  
  23052077.748   121139480.407 6                        46.250    23052076.408  
  94394402.868 9                        41.500  
  24902211.434   130861985.568 5                        39.500    24902210.834  
 101970365.579 7                        28.000  
  21155572.900   111173310.620 7                        50.500    21155571.420  
  86628552.114 9                        46.750  
  23747425.462   124793564.320 6                        46.000    23747424.162  
  97241729.183 8                        37.500  
  20204197.806   106173803.752 7                        51.500    20204197.466  
  82732847.305 9                        49.750  
  25462937.392   133808623.616 4                        37.500    25462937.712  
 104266444.703 6                        22.500  
  23696061.922   124523680.667 6                        45.250    23696062.642  
  97031461.448 8                        39.250  
  20452455.204   107478405.350 7                        51.000    20452454.244  
  83749418.113 9                        49.000  
  21485414.100   114851870.531 7                        48.500    21485421.100  
  89329260.552 8                        40.000  
  21185198.700   113406068.293 8                        49.500    21185199.160  
  88204733.621 9                        43.250  
  19280136.752   103244268.348 8                        51.250    19280140.152  
  80301141.759 9                        50.250  
  22406516.772   119649587.725 7                        47.750    22406525.792  
  93060843.158 9                        42.250  
  23930782.844   127564551.635 5                        39.750    23930796.364  
  99216941.980 7                        32.000  
  23137451.528   123596138.651 6                        44.750    23137459.928  
  96130371.252 8                        40.500  
  24514514.720   131182116.599 3                        35.250    24514520.820  
 102030562.196 7                        30.750  
  23616254.144   126065155.158 6                        43.000    23616263.244  
  98050717.217 8                        39.500  
  20169020.808   107890662.694 8                        51.750    20169028.168  
  83914980.250 9                        48.750  
  20472612.324   109476264.156 8                        50.750    20472617.984  
  85148242.016 9                        48.500  
 11 05 11  5 10 30.0000000  0 20G11G14G17G19G20G23G24G28G31G32R01R07 0.000000000
                                R08R09R10R16R17R22R23R24    
  20698067.102   108769097.888 7                        51.250    20698065.142  
  84755146.960 9                        48.750  
  23172682.106   121773277.092 7                        47.250    23172681.166  
  94888264.058 8                        37.750  
  23048124.928   121118708.347 6                        46.750    23048123.608  
  94378216.862 9                        42.250  
  24909386.474   130899690.306 5                        40.000    24909385.854  
 101999745.853 7                        32.500  
  21151482.240   111151813.996 7                        50.750    21151480.740  
  86611801.500 9                        47.000  
  23740447.862   124756896.973 6                        46.750    23740446.542  
  97213157.231 8                        37.750  
  20204705.766   106176473.090 7                        51.500    20204705.426  
  82734927.306 9                        49.500  
  25467547.232   133832848.463 3                        35.750    25467547.532  
 104285321.223 8                        33.250  
  23691450.482   124499447.444 6                        45.500    23691451.182  
  97012578.435 8                        38.000  
  20452113.444   107476609.399 7                        51.000    20452112.484  
  83748018.669 9                        49.250  
  21479810.700   114821917.189 7                        48.250    21479817.720  
  89305963.514 8                        40.250  
  21190818.060   113436149.140 8                        49.500    21190818.540  
  88228129.827 9                        43.250  
  19280621.932   103246866.468 8                        51.250    19280625.352  
  80303162.521 9                        50.250  
  22402989.672   119630753.326 7                        47.750    22402998.692  
  93046194.203 9                        42.250  
  23923144.924   127523837.573 4                        38.250    23923158.464  
  99185275.528 7                        30.250  
  23140353.008   123611637.708 7                        45.250    23140361.448  
  96142426.062 8                        40.750  
  24506474.580   131139092.167 3                        37.000    24506480.660  
 101997098.761 7                        32.000  
  23624840.504   126110989.571 6                        44.000    23624849.624  
  98086366.144 8                        39.500  
  20173590.168   107915105.534 8                        51.750    20173597.508  
  83933991.335 9                        48.750  
  20469063.564   109457287.382 8                        50.750    20469069.244  
  85133482.296 9                        48.500  
 11 05 11  5 10 40.0000000  0 20G11G14G17G19G20G23G24G28G31G32R01R07 0.000000000
                                R08R09R10R16R17R22R23R24    
  20701354.842   108786375.046 7                        51.250    20701352.902  
  84768609.671 9                        48.500  
  23178065.086   121801564.698 6                        46.750    23178064.126  
  94910306.340 8                        39.000  
  23044182.288   121097989.892 6                        46.750    23044181.028  
  94362072.607 9                        41.750  
  24916561.694   130937395.821 5                        40.000    24916560.994  
 102029126.696 7                        31.250  
  21147398.400   111130353.356 7                        50.500    21147396.920  
  86595078.926 9                        47.000  
  23733473.202   124720245.056 6                        47.000    23733471.882  
  97184597.303 8                        37.500  
  20205223.366   106179192.967 7                        51.500    20205223.006  
  82737046.687 9                        49.500  
  25472161.232   133857095.194 3                        37.000    25472161.512  
 104304214.774 7                        30.500  
  23686846.602   124475254.018 6                        45.250    23686847.282  
  96993726.445 8                        39.500  
  20451779.924   107474856.758 7                        51.000    20451778.964  
  83746652.979 9                        49.000  
  21474213.760   114791998.281 7                        48.250    21474220.760  
  89282693.269 8                        40.250  
  21196442.160   113466255.243 8                        49.250    21196442.620  
  88251545.670 9                        43.250  
  19281117.472   103249520.059 8                        51.250    19281120.892  
  80305226.423 9                        50.250  
  22399477.152   119611996.801 7                        47.500    22399486.192  
  93031605.808 9                        42.500  
  23915510.104   127483139.896 5                        40.500    23915523.624  
  99153621.807 7                        31.000  
  23143269.868   123627218.856 6                        45.000    23143278.328  
  96154544.703 8                        41.000  
  24498437.680   131096085.008 3                        36.500    24498443.780  
 101963648.770 7                        31.250  
  23633428.484   126156832.647 6                        43.750    23633437.624  
  98122021.827 8                        39.750  
  20178173.988   107939625.869 8                        51.750    20178181.348  
  83953062.688 9                        48.750  
  20465530.084   109438392.276 8                        51.000    20465535.764  
  85118786.103 9                        48.500  
 11 05 11  5 10 50.0000000  0 20G11G14G17G19G20G23G24G28G31G32R01R07 0.000000000
                                R08R09R10R16R17R22R23R24    
  20704652.662   108803705.171 7                        51.250    20704650.722  
  84782113.652 9                        48.750  
  23183455.106   121829889.437 6                        46.750    23183454.166  
  94932377.540 8                        38.250  
  23040249.928   121077325.490 6                        47.000    23040248.728  
  94345970.475 9                        41.250  
  24923737.134   130975102.548 5                        39.500    24923736.334  
 102058508.520 8                        34.500  
  21143321.520   111108929.115 7                        50.500    21143320.000  
  86578384.716 9                        47.000  
  23726501.602   124683609.048 6                        46.250    23726500.262  
  97156049.777 8                        37.000  
  20205750.646   106181963.816 7                        51.500    20205750.266  
  82739205.786 9                        49.500  
  25476779.412   133881363.975 3                        36.750    25476779.712  
 104323125.492 7                        32.250  
  23682250.404   124451100.792 6                        45.500    23682251.064  
  96974905.781 8                        38.750  
  20451454.724   107473147.810 7                        51.000    20451453.764  
  83745321.327 9                        49.250  
  21468623.300   114762114.130 7                        48.500    21468630.300  
  89259450.045 8                        40.250  
  21202071.080   113496387.282 8                        49.250    21202071.560  
  88274981.684 9                        43.250  
  19281623.432   103252229.401 8                        51.250    19281626.852  
  80307333.687 9                        50.250  
  22395979.272   119593318.416 7                        47.750    22395988.312  
  93017078.175 9                        42.500  
  23907878.404   127442458.900 5                        39.500    23907891.944  
  99121981.098 7                        31.500  
  23146202.188   123642882.470 6                        45.000    23146210.668  
  96166727.504 9                        41.250  
  24490404.080   131053095.464 4                        37.250    24490410.180  
 101930212.456 7                        30.750  
  23642018.144   126202684.750 6                        43.500    23642027.304  
  98157684.497 8                        40.000  
  20182772.388   107964224.032 8                        51.750    20182779.728  
  83972194.576 9                        48.750  
  20462011.904   109419579.104 8                        50.750    20462017.624  
  85104153.636 9                        48.500  
 11 05 11  5 11  0.0000000  0 20G11G14G17G19G20G23G24G28G31G32R01R07 0.000000000
                                R08R09R10R16R17R22R23R24    
  20707960.282   108821086.708 7                        51.250    20707958.342  
  84795657.694 9                        48.750  
  23188851.926   121858249.639 6                        46.500    23188850.946  
  94954476.385 8                        37.750  
  23036327.588   121056713.622 7                        47.250    23036326.448  
  94329909.286 9                        41.750  
  24930912.494   131012808.749 4                        38.500    24930911.594  
 102087889.978 7                        32.500  
  21139251.260   111087539.786 7                        50.500    21139249.740  
  86561717.709 9                        47.250  
  23719532.742   124646987.539 6                        46.000    23719531.422  
  97127513.565 8                        37.500  
  20206287.346   106184784.086 7                        51.500    20206286.966  
  82741403.394 9                        49.750  
  25481401.492   133905653.219 3                        36.750    25481401.812  
 104342052.266 7                        28.500  
  23677661.564   124426986.322 6                        45.500    23677662.204  
  96956115.309 8                        38.000  
  20451137.524   107471480.952 7                        51.000    20451136.564  
  83744022.481 9                        49.250  
  21463039.100   114732263.314 7                        48.500    21463046.060  
  89236232.754 8                        40.000  
  21207704.360   113526542.665 8                        49.500    21207704.860  
  88298435.865 9                        43.250  
  19282139.492   103254992.877 8                        51.250    19282142.892  
  80309483.051 9                        50.250  
  22392495.772   119574716.843 7                        47.250    22392504.832  
  93002610.304 9                        42.750  
  23900249.584   127401793.188 5                        40.000    23900263.104  
  99090352.225 7                        31.000  
  23149149.648   123658626.939 7                        45.250    23149158.128  
  96178973.164 9                        41.750  
  24482373.520   131010122.138 4                        37.250    24482379.620  
 101896788.758 7                        31.750  
  23650609.184   126248544.108 6                        43.250    23650618.364  
  98193352.817 8                        39.500  
  20187385.008   107988898.348 8                        51.750    20187392.348  
  83991385.698 9                        48.750  
  20458508.824   109400846.591 8                        50.750    20458514.564  
  85089583.905 9                        48.500  
 11 05 11  5 11 10.0000000  0 20G11G14G17G19G20G23G24G28G31G32R01R07 0.000000000
                                R08R09R10R16R17R22R23R24    
  20711278.022   108838521.507 7                        51.250    20711276.102  
  84809243.240 9                        48.750  
  23194255.806   121886647.115 6                        47.000    23194254.846  
  94976604.267 8                        38.250  
  23032415.628   121036156.320 7                        47.250    23032414.548  
  94313890.611 9                        41.500  
  24938088.094   131050516.282 4                        37.250    24938087.114  
 102117272.399 5                        14.500  
  21135188.000   111066187.274 7                        50.500    21135186.500  
  86545079.395 9                        46.750  
  23712567.022   124610382.604 6                        46.750    23712565.722  
  97098990.255 8                        35.000  
  20206833.806   106187655.703 7                        51.250    20206833.406  
  82743641.010 9                        49.500  
  25486027.790   133929964.650 4                        38.000    25486028.110  
 104360996.242 5                        14.250  
  23673080.484   124402912.674 6                        45.500    23673081.144  
  96937356.667 8                        38.250  
  20450828.704   107469858.063 7                        51.000    20450827.744  
  83742757.886 9                        49.250  
  21457461.480   114702447.773 7                        48.250    21457468.420  
  89213042.901 8                        40.000  
  21213342.500   113556724.011 7                        49.000    21213343.000  
  88321910.224 9                        43.250  
  19282666.032   103257812.504 8                        51.250    19282669.452  
  80311676.094 9                        50.250  
  22389027.012   119556194.063 7                        47.500    22389036.112  
  92988203.716 9                        43.000  
  23892624.024   127361144.841 5                        41.000    23892637.524  
  99058736.879 7                        31.000  
  23152112.608   123674454.184 6                        44.750    23152121.088  
  96191283.215 9                        41.250  
  24474346.460   130967167.475 4                        38.500    24474352.540  
 101863379.572 7                        32.250  
  23659201.944   126294412.617 6                        43.250    23659211.144  
  98229028.265 8                        39.250  
  20192012.228   108013650.737 8                        51.750    20192019.568  
  84010637.540 9                        48.750  
  20455021.164   109382196.642 8                        50.750    20455026.944  
  85075078.383 9                        48.250  
 11 05 11  5 11 20.0000000  0 20G11G14G17G19G20G23G24G28G31G32R01R07 0.000000000
                                R08R09R10R16R17R22R23R24    
  20714605.882   108856009.479 7                        51.250    20714603.962  
  84822870.221 9                        48.750  
  23199666.786   121915081.751 6                        46.750    23199665.786  
  94998761.121 8                        38.000  
  23028514.088   121015653.654 7                        47.250    23028513.028  
  94297914.504 9                        42.000  
  24945263.914   131088225.040 4                        37.750    24945262.834  
 102146655.759 6                        22.250  
  21131131.780   111044871.641 7                        50.750    21131130.260  
  86528469.812 9                        47.250  
  23705604.462   124573794.167 6                        46.750    23705603.162  
  97070479.795 8                        38.000  
  20207390.046   106190578.664 7                        51.500    20207389.646  
  82745918.638 9                        49.750  
  25490658.330   133954298.263 4                        37.250    25490658.530  
 104379957.462 7                        31.000  
  23668507.184   124378879.917 6                        45.500    23668507.844  
  96918629.860 8                        38.250  
  20450528.244   107468279.122 7                        51.000    20450527.284  
  83741527.544 9                        49.250  
  21451890.460   114672667.476 7                        48.500    21451897.400  
  89189880.468 8                        40.250  
  21218985.440   113586931.049 8                        49.250    21218985.940  
  88345404.574 9                        43.500  
  19283202.992   103260687.924 8                        51.250    19283206.412  
  80313912.530 9                        50.250  
  22385573.092   119537750.379 7                        47.750    22385582.212  
  92973858.639 9                        43.000  
  23885001.804   127320514.273 5                        40.500    23885015.264  
  99027135.340 7                        31.750  
  23155090.988   123690363.920 7                        46.000    23155099.508  
  96203657.456 8                        40.500  
  24466322.900   130924231.528 4                        38.000    24466328.940  
 101829984.940 7                        31.500  
  23667796.364   126340289.985 6                        43.000    23667805.564  
  98264710.591 8                        39.000  
  20196654.028   108038481.042 8                        51.750    20196661.348  
  84029949.986 9                        48.750  
  20451548.984   109363629.402 8                        50.750    20451554.764  
  85060637.194 9                        48.250  
 11 05 11  5 11 30.0000000  0 20G11G14G17G19G20G23G24G28G31G32R01R07 0.000000000
                                R08R09R10R16R17R22R23R24    
  20717943.662   108873549.574 7                        51.250    20717941.762  
  84836537.813 9                        48.750  
  23205084.606   121943552.375 6                        46.500    23205083.586  
  95020945.998 8                        38.500  
  23024622.768   120995204.569 7                        47.250    23024621.708  
  94281980.152 8                        41.000  
  24952439.694   131125933.743 4                        37.500    24952438.554  
 102176039.026 7                        29.500  
  21127082.360   111023591.843 7                        50.750    21127080.860  
  86511888.153 9                        47.000  
  23698644.882   124537221.367 6                        46.000    23698643.562  
  97041981.501 8                        37.500  
  20207955.826   106193551.837 7                        51.500    20207955.406  
  82748235.396 9                        49.750  
  25495292.870   133978652.793 4                        38.750    25495292.950  
 104398934.991 7                        31.250  
  23663941.524   124354887.123 6                        45.500    23663942.124  
  96899934.188 8                        38.000  
  20450235.924   107466742.997 7                        51.000    20450234.964  
  83740330.565 9                        49.000  
  21446325.860   114642921.411 7                        48.250    21446332.760  
  89166744.645 8                        40.250  
  21224632.940   113617162.479 8                        49.500    21224633.420  
  88368917.898 9                        43.500  
  19283750.232   103263618.335 8                        51.250    19283753.652  
  80316191.738 9                        50.250  
  22382133.752   119519384.603 7                        47.500    22382142.892  
  92959574.154 9                        43.250  
  23877382.704   127279900.308 6                        41.500    23877396.144  
  98995546.750 7                        31.000  
  23158084.608   123706355.007 7                        45.250    23158093.088  
  96216094.956 8                        40.750  
  24458302.560   130881312.860 4                        37.750    24458308.560  
 101796603.735 7                        32.500  
  23676392.224   126386175.160 6                        43.000    23676401.464  
  98300398.988 8                        38.750  
  20201310.148   108063388.043 8                        51.750    20201317.468  
  84049322.081 9                        48.750  
  20448092.104   109345143.924 8                        50.750    20448097.904  
  85046259.602 9                        48.250  
 11 05 11  5 11 40.0000000  0 20G11G14G17G19G20G23G24G28G31G32R01R07 0.000000000
                                R08R09R10R16R17R22R23R24    
  20721291.702   108891143.653 7                        51.250    20721289.802  
  84850247.481 9                        48.500  
  23210509.626   121972060.887 6                        46.750    23210508.606  
  95043160.417 8                        37.250  
  23020742.008   120974811.112 6                        47.000    23020740.988  
  94266089.154 9                        41.750  
  24959615.834   131163644.321 3                        37.000    24959615.254  
 102205451.91018                        34.250  
  21123040.140   111002349.796 7                        50.500    21123038.620  
  86495335.913 9                        47.250  
  23691688.642   124500666.150 6                        44.750    23691687.322  
  97013496.951 8                        38.000  
  20208531.566   106196577.253 7                        51.500    20208531.126  
  82750592.854 9                        49.750  
  25499931.750   134003030.111 4                        38.250    25499931.710  
 104417930.266 7                        27.000  
  23659383.824   124330936.313 6                        45.500    23659384.404  
  96881271.249 8                        38.500  
  20449952.144   107465251.670 7                        51.000    20449951.164  
  83739168.490 9                        49.250  
  21440768.020   114613211.561 7                        48.500    21440774.900  
  89143636.993 8                        40.500  
  21230285.380   113647420.366 8                        49.250    21230285.840  
  88392451.787 9                        43.500  
  19284308.072   103266605.594 8                        51.250    19284311.492  
  80318515.160 9                        50.250  
  22378709.412   119501098.938 7                        47.500    22378718.592  
  92945351.998 9                        43.000  
  23869767.104   127239305.037 5                        40.500    23869780.524  
  98963972.654 7                        32.250  
  23161093.828   123722429.450 6                        45.000    23161102.288  
  96228597.303 8                        41.000  
  24450285.880   130838413.820 3                        35.750    24450291.880  
 101763237.821 7                        32.500  
  23684989.904   126432069.874 6                        42.500    23684999.124  
  98336094.819 8                        38.000  
  20205980.948   108088373.523 8                        51.750    20205988.268  
  84068755.218 9                        48.750  
  20444650.884   109326742.174 8                        51.000    20444656.684  
  85031947.130 9                        48.500  
 11 05 11  5 11 50.0000000  0 20G11G14G17G19G20G23G24G28G31G32R01R07 0.000000000
                                R08R09R10R16R17R22R23R24    
  20724650.382   108908793.599 7                        51.250    20724648.502  
  84864000.669 9                        48.750  
  23215942.206   122000609.122 6                        46.250    23215941.186  
  95065405.783 8                        37.750  
  23016872.228   120954475.362 7                        47.250    23016871.248  
  94250243.121 9                        41.500  
  24966792.694   131201358.731 3                        36.750    24966792.314  
 102234839.651 7                        29.000  
  21119005.500   110981147.599 7                        50.500    21119003.980  
  86478814.720 9                        47.250  
  23684736.122   124464130.534 6                        46.250    23684734.822  
  96985027.671 8                        38.750  
  20209117.606   106199656.916 7                        51.500    20209117.166  
  82752992.586 9                        49.750  
  25504575.350   134027432.210 4                        37.750    25504575.250  
 104436944.863 7                        30.750  
  23654834.504   124307029.583 6                        45.000    23654835.064  
  96862642.642 8                        39.250  
  20449677.224   107463807.045 7                        51.000    20449676.264  
  83738042.808 9                        49.000  
  21435217.360   114583540.078 7                        48.500    21435224.240  
  89120559.186 8                        40.250  
  21235943.100   113677706.413 8                        49.500    21235943.540  
  88416007.579 9                        43.500  
  19284876.892   103269651.591 8                        51.250    19284880.332  
  80320884.269 9                        50.250  
  22375300.452   119482895.434 7                        47.500    22375309.672  
  92931193.733 9                        42.750  
  23862155.404   127198730.654 5                        41.000    23862168.804  
  98932414.855 7                        32.500  
  23164119.008   123738589.219 6                        44.500    23164127.468  
  96241166.018 8                        40.750  
  24442273.300   130795536.798 2                        34.750    24442279.320  
 101729889.003 7                        32.250  
  23693589.684   126477975.964 6                        43.000    23693598.924  
  98371799.493 8                        38.000  
  20210666.808   108113439.487 8                        51.750    20210674.108  
  84088250.960 9                        48.750  
  20441225.744   109308426.460 8                        51.000    20441231.544  
  85017701.566 9                        48.250  
 11 05 11  5 12  0.0000000  0 20G11G14G17G19G20G23G24G28G31G32R01R07 0.000000000
                                R08R09R10R16R17R22R23R24    
  20728016.702   108926483.696 7                        51.250    20728014.842  
  84877785.150 9                        48.500  
  23221379.346   122029181.349 6                        46.000    23221378.306  
  95087669.839 8                        38.000  
  23013010.468   120934181.681 7                        47.500    23013009.488  
  94234429.870 9                        41.500  
  24973967.274   131239061.206 3                        37.000    24973966.894  
 102264218.250 6                        25.500  
  21114975.440   110959969.593 7                        50.500    21114973.940  
  86462312.384 9                        47.250  
  23677784.364   124427598.983 6                        46.750    23677783.084  
  96956561.525 8                        36.750  
  20209711.006   106202775.186 7                        51.500    20209710.566  
  82755422.401 9                        49.500  
  25509220.630   134051843.124 3                        36.500    25509220.450  
 104455966.418 7                        29.250  
  23650290.604   124283151.364 6                        45.500    23650291.124  
  96844036.268 8                        37.750  
  20449408.244   107462393.525 7                        51.250    20449407.284  
  83736941.364 9                        49.000  
  21429670.900   114553891.036 7                        48.250    21429677.780  
  89097498.826 8                        40.750  
  21241603.120   113708004.852 8                        49.250    21241603.560  
  88439573.027 9                        43.750  
  19285453.752   103272740.704 8                        51.250    19285457.192  
  80323286.910 9                        50.250  
  22371903.952   119464758.380 7                        47.750    22371913.172  
  92917087.142 9                        43.000  
  23854544.724   127158161.565 5                        39.750    23854558.104  
  98900861.156 7                        33.000  
  23167157.128   123754818.142 6                        44.250    23167165.588  
  96253788.489 9                        41.250  
  24434261.860   130752665.988 2                        34.500    24434267.960  
 101696545.084 7                        33.000  
  23702188.644   126523877.594 6                        42.750    23702197.884  
  98407500.717 8                        38.000  
  20215364.668   108138569.812 8                        51.750    20215371.988  
  84107796.751 9                        48.750  
  20437813.664   109290180.569 8                        51.000    20437819.464  
  85003510.324 9                        48.500  
 11 05 11  5 12 10.0000000  0 20G11G14G17G19G20G23G24G28G31G32R01R07 0.000000000
                                R08R09R10R16R17R22R23R24    
  20731394.542   108944234.402 7                        51.250    20731392.702  
  84891616.857 9                        48.750  
  23226824.906   122057797.915 6                        46.000    23226823.866  
  95109968.436 8                        36.500  
  23009160.608   120913950.649 7                        47.500    23009159.648  
  94218665.417 9                        41.750  
  24981143.474   131276772.118 3                        35.750    24981143.034  
 102293603.276 7                        29.750  
  21110953.900   110938836.190 7                        50.500    21110952.380  
  86445844.795 9                        47.250  
  23670837.304   124391091.994 6                        46.250    23670836.004  
  96928114.529 8                        37.750  
  20210315.626   106205952.491 7                        51.250    20210315.186  
  82757898.221 9                        49.500  
  25513871.450   134076283.191 4                        39.000    25513871.130  
 104475010.577 7                        31.000  
  23645756.024   124259322.190 6                        45.250    23645756.544  
  96825468.112 8                        38.250  
  20449149.064   107461031.469 7                        51.250    20449148.104  
  83735880.018 9                        49.250  
  21424132.540   114524285.178 7                        48.000    21424139.400  
  89074472.062 8                        40.250  
  21247269.300   113738336.338 8                        49.250    21247269.760  
  88463164.164 9                        43.500  
  19286042.472   103275893.243 8                        51.500    19286045.912  
  80325738.887 9                        50.250  
  22368523.772   119446708.531 7                        47.500    22368532.992  
  92903048.387 9                        43.000  
  23846938.924   127117618.541 5                        40.500    23846952.304  
  98869327.745 7                        33.000  
  23170212.088   123771136.971 6                        44.500    23170220.548  
  96266480.905 9                        41.250  
  24426255.420   130709822.004 2                        34.250    24426261.580  
 101663222.018 8                        33.250  
  23710790.664   126569795.392 6                        42.000    23710799.864  
  98443214.477 8                        37.500  
  20220078.468   108163785.292 8                        51.750    20220085.788  
  84127408.768 9                        48.750  
  20434418.644   109272025.893 8                        51.000    20434424.444  
  84989390.018 9                        48.500  
 11 05 11  5 12 20.0000000  0 20G11G14G17G19G20G23G24G28G31G32R01R07 0.000000000
                                R08R09R10R16R17R22R23R24    
  20734783.522   108962043.522 7                        51.250    20734781.682  
  84905494.083 9                        48.500  
  23232278.466   122086456.624 6                        46.000    23232277.466  
  95132299.889 8                        37.250  
  23005322.288   120893780.154 7                        47.500    23005321.328  
  94202948.154 9                        41.500  
  24988320.834   131314489.163 2                        34.750    24988320.354  
 102322994.13117                        30.000  
  21106940.440   110917745.333 7                        50.500    21106938.920  
  86429410.370 9                        47.250  
  23663894.544   124354607.594 6                        46.500    23663893.244  
  96899685.153 8                        37.000  
  20210931.066   106209186.655 7                        51.250    20210930.626  
  82760418.340 9                        49.750  
  25518527.390   134100750.234 4                        38.000    25518527.010  
 104494075.824 7                        27.000  
  23641230.404   124235540.094 6                        46.000    23641230.924  
  96806936.622 8                        38.500  
  20448899.264   107459718.775 7                        51.000    20448898.304  
  83734857.139 9                        49.250  
  21418601.840   114494720.430 7                        48.250    21418608.700  
  89051477.277 8                        40.500  
  21252941.320   113768698.918 8                        49.250    21252941.800  
  88486779.490 9                        43.750  
  19286642.612   103279106.998 8                        51.250    19286646.052  
  80328238.472 9                        50.250  
  22365159.572   119428743.890 7                        48.000    22365168.792  
  92889075.905 9                        43.000  
  23839337.684   127077099.735 4                        38.500    23839351.044  
  98837813.176 7                        31.750  
  23173283.428   123787543.467 6                        44.500    23173291.908  
  96279241.478 9                        41.500  
  24418253.620   130667002.898 2                        35.000    24418259.860  
 101629918.283 8                        33.500  
  23719395.224   126615726.968 6                        41.750    23719404.444  
  98478938.986 8                        37.500  
  20224807.748   108189083.615 8                        51.750    20224815.048  
  84147085.231 9                        48.750  
  20431040.244   109253960.147 8                        51.000    20431046.064  
  84975338.889 9                        48.500  
 11 05 11  5 12 30.0000000  0 20G11G14G17G19G20G23G24G28G31G32R01R07 0.000000000
                                R08R09R10R16R17R22R23R24    
  20738180.622   108979895.396 7                        51.250    20738178.782  
  84919404.626 9                        48.500  
  23237737.066   122115141.672 6                        46.000    23237736.066  
  95154651.856 8                        37.000  
  23001492.548   120873654.716 7                        47.250    23001491.588  
  94187265.995 9                        42.250  
  24995496.414   131352196.817 3                        35.500    24995496.254  
 102352376.592 7                        32.500  
  21102932.100   110896681.414 7                        50.500    21102930.600  
  86412996.934 9                        47.250  
  23656953.084   124318130.115 6                        46.250    23656951.824  
  96871261.149 8                        38.000  
  20211554.366   106212462.090 7                        51.250    20211553.926  
  82762970.621 9                        49.500  
  25523185.490   134125228.496 4                        37.500    25523185.070  
 104513149.790 7                        27.500  
  23636710.784   124211789.493 6                        45.500    23636711.284  
  96788429.687 8                        39.000  
  20448655.884   107458439.712 7                        51.000    20448654.924  
  83733860.465 9                        49.250  
  21413075.860   114465180.919 7                        48.250    21413082.740  
  89028502.106 8                        40.250  
  21258616.020   113799076.005 7                        49.000    21258616.520  
  88510406.100 9                        43.750  
  19287251.272   103282366.403 8                        51.250    19287254.732  
  80330773.563 9                        50.250  
  22361808.352   119410848.610 7                        47.750    22361817.552  
  92875157.357 9                        43.250  
  23831737.964   127036589.220 5                        39.500    23831751.324  
  98806304.993 7                        32.250  
  23176368.208   123804021.694 6                        44.750    23176376.728  
  96292057.857 9                        41.250  
  24410253.480   130624192.832 3                        35.250    24410259.840  
 101596621.580 7                        32.500  
  23727999.404   126661656.260 6                        41.250    23728008.604  
  98514661.690 8                        37.500  
  20229549.508   108214448.796 8                        51.750    20229556.828  
  84166813.683 9                        48.750  
  20427675.544   109235967.568 8                        51.000    20427681.364  
  84961344.653 9                        48.250  
 11 05 11  5 12 40.0000000  0 20G11G14G17G19G20G23G24G28G31G32R01R07 0.000000000
                                R08R09R10R16R17R22R23R24    
  20741587.282   108997797.525 7                        51.250    20741585.462  
  84933354.321 9                        48.500  
  23243202.066   122143860.477 6                        46.250    23243201.086  
  95177030.140 8                        37.500  
  22997672.808   120853581.863 7                        47.750    22997671.868  
  94171624.813 9                        41.500  
  25002671.554   131389902.180 3                        35.750    25002671.494  
 102381757.343 7                        27.250  
  21098930.320   110875651.932 7                        50.750    21098928.820  
  86396610.331 9                        47.250  
  23650014.384   124281667.174 6                        46.250    23650013.144  
  96842848.490 8                        37.750  
  20212186.946   106215786.325 7                        51.500    20212186.506  
  82765560.928 9                        49.500  
  25527847.110   134149725.391 4                        37.750    25527846.590  
 104532238.368 7                        33.000  
  23632198.624   124188078.016 6                        45.250    23632199.104  
  96769953.233 8                        39.000  
  20448420.324   107457201.825 7                        51.000    20448419.344  
  83732895.876 9                        49.500  
  21407556.040   114435674.304 7                        48.500    21407562.900  
  89005552.529 8                        40.500  
  21264294.900   113829475.317 8                        49.250    21264295.420  
  88534049.985 9                        43.750  
  19287869.832   103285678.705 8                        51.250    19287873.292  
  80333349.798 9                        50.250  
  22358471.592   119393030.592 7                        47.500    22358480.812  
  92861298.914 9                        43.250  
  23824141.344   126996095.134 5                        40.500    23824154.724  
  98774809.663 7                        31.500  
  23179467.808   123820579.155 6                        44.250    23179476.368  
  96304935.873 9                        41.250  
  24402256.520   130581399.671 3                        36.500    24402262.940  
 101563338.002 7                        33.000  
  23736604.524   126707590.729 6                        42.500    23736613.724  
  98550388.425 8                        37.500  
  20234305.168   108239888.212 8                        51.500    20234312.488  
  84186599.885 9                        48.750  
  20424325.964   109218055.765 8                        51.000    20424331.764  
  84947413.257 9                        48.500  
 11 05 11  5 12 50.0000000  0 20G11G14G17G19G20G23G24G28G31G32R01R07 0.000000000
                                R08R09R10R16R17R22R23R24    
  20745005.162   109015758.559 7                        51.250    20745003.342  
  84947349.927 9                        48.750  
  23248675.146   122172621.752 6                        45.750    23248674.166  
  95199441.495 8                        36.750  
  22993864.768   120833570.409 7                        47.250    22993863.828  
  94156031.474 9                        42.500  
  25009847.934   131427614.125 3                        35.750    25009848.414  
 102411148.31118                        34.250  
  21094936.760   110854665.685 7                        50.500    21094935.260  
  86380257.411 9                        47.250  
  23643080.144   124245227.599 6                        46.500    23643078.944  
  96814454.033 8                        38.000  
  20212830.466   106219168.090 7                        51.500    20212830.046  
  82768196.064 9                        49.750  
  25532513.930   134174249.648 3                        37.000    25532513.270  
 104551348.115 7                        27.000  
  23627695.564   124164414.429 6                        45.500    23627696.024  
  96751514.100 8                        38.250  
  20448194.244   107456013.783 7                        51.000    20448193.284  
  83731970.128 9                        49.250  
  21402044.040   114406209.489 7                        48.500    21402050.900  
  88982635.459 8                        40.250  
  21269979.640   113859906.109 8                        49.250    21269980.180  
  88557718.364 9                        43.750  
  19288499.912   103289052.832 8                        51.250    19288503.392  
  80335974.115 9                        50.250  
  22355150.992   119375298.781 7                        47.750    22355160.212  
  92847507.516 9                        43.250  
  23816549.464   126955626.317 5                        40.500    23816562.844  
  98743333.917 7                        31.250  
  23182583.888   123837224.607 7                        45.250    23182592.488  
  96317882.335 9                        41.250  
  24394264.440   130538632.584 3                        37.000    24394270.940  
 101530074.723 7                        32.250  
  23745212.284   126753539.235 6                        41.750    23745221.524  
  98586126.108 8                        36.750  
  20239076.368   108265410.811 8                        51.500    20239083.708  
  84206450.780 9                        48.750  
  20420993.224   109200234.034 8                        51.000    20420998.984  
  84933551.902 9                        48.500  
 11 05 11  5 13  0.0000000  0 20G11G14G17G19G20G23G24G28G31G32R01R07 0.000000000
                                R08R09R10R16R17R22R23R24    
  20748433.802   109033776.120 7                        51.250    20748431.982  
  84961389.569 9                        48.500  
  23254155.846   122201423.006 6                        45.750    23254154.866  
  95221884.011 8                        36.750  
  22990067.968   120813618.075 7                        47.500    22990067.048  
  94140484.203 9                        42.000  
  25017025.094   131465330.064 3                        36.250    25017025.514  
 102440537.294 7                        28.250  
  21090951.000   110833720.393 7                        50.500    21090949.520  
  86363936.411 9                        47.250  
  23636149.944   124208809.186 6                        46.250    23636148.764  
  96786076.051 8                        37.750  
  20213484.506   106222605.065 7                        51.500    20213484.086  
  82770874.220 9                        49.500  
  25537185.490   134198798.730 3                        36.000    25537184.710  
 104570477.241 8                        33.500  
  23623201.224   124140796.733 6                        45.750    23623201.684  
  96733110.717 8                        38.250  
  20447977.224   107454873.238 7                        51.000    20447976.264  
  83731081.386 9                        49.250  
  21396539.420   114376784.132 7                        48.500    21396546.260  
  88959749.089 8                        40.500  
  21275669.720   113890365.510 7                        49.000    21275670.280  
  88581409.005 9                        43.500  
  19289141.132   103292486.539 8                        51.250    19289144.612  
  80338644.778 9                        50.250  
  22351846.092   119357650.866 7                        47.250    22351855.332  
  92833781.366 9                        43.000  
  23808961.924   126915180.584 5                        40.500    23808975.304  
  98711876.158 7                        31.500  
  23185715.968   123853955.635 6                        44.250    23185724.628  
  96330895.338 9                        41.250  
  24386276.760   130495889.117 3                        35.750    24386283.360  
 101496829.814 7                        32.000  
  23753822.204   126799499.284 6                        41.250    23753831.444  
  98621872.746 8                        36.500  
  20243862.608   108291013.965 8                        51.750    20243869.968  
  84226364.332 9                        48.750  
  20417676.864   109182499.887 8                        51.250    20417682.604  
  84919758.681 9                        48.500  
 11 05 11  5 13 10.0000000  0 20G11G14G17G19G20G23G24G28G31G32R01R07 0.000000000
                                R08R09R10R16R17R22R23R24    
  20751869.862   109051832.735 7                        51.250    20751868.062  
  84975459.648 9                        48.250  
  23259640.826   122230246.768 6                        45.750    23259639.866  
  95244344.073 8                        37.000  
  22986279.168   120793707.652 7                        47.500    22986278.248  
  94124969.591 9                        41.250  
  25024199.714   131503032.607 3                        36.250                  
                                                
  21086969.740   110812798.765 7                        50.750    21086968.260  
  86347633.845 9                        47.250  
  23629220.444   124172394.542 6                        45.750    23629219.264  
  96757701.030 8                        37.500  
  20214145.746   106226079.915 7                        51.250    20214145.326  
  82773581.889 9                        49.750  
  25541858.470   134223355.267 4                        37.500    25541857.610  
 104589612.213 7                        31.250  
  23618712.324   124117207.533 6                        45.500    23618712.784  
  96714729.553 8                        39.250  
  20447765.924   107453762.804 7                        51.000    20447764.964  
  83730216.115 9                        49.250  
  21391038.880   114347380.636 7                        48.500    21391045.700  
  88936879.712 8                        40.500  
  21281361.900   113920836.072 8                        49.250    21281362.460  
  88605108.308 9                        43.750  
  19289790.132   103295961.883 8                        51.500    19289793.612  
  80341347.817 9                        50.250  
  22348553.632   119340069.281 7                        47.500    22348562.872  
  92820106.827 9                        43.250  
  23801375.404   126874740.406 6                        41.250    23801388.784  
  98680422.701 7                        31.000  
  23188860.748   123870754.587 6                        44.250    23188869.488  
  96343961.189 9                        41.500  
  24378290.300   130453152.224 3                        35.750    24378297.000  
 101463590.025 7                        32.500  
  23762430.984   126845453.131 5                        40.750    23762440.224  
  98657614.573 8                        36.500  
  20248660.628   108316680.021 8                        51.500    20248668.008  
  84246326.804 9                        48.750  
  20414373.584   109164835.684 8                        51.000    20414379.304  
  84906019.858 9                        48.500  
 11 05 11  5 13 20.0000000  0 20G11G14G17G19G20G23G24G28G31G32R01R07 0.000000000
                                R08R09R10R16R17R22R23R24    
  20755318.322   109069954.425 7                        51.250    20755316.502  
  84989580.435 9                        48.500  
  23265135.026   122259119.026 6                        46.250    23265134.086  
  95266841.918 8                        36.250  
  22982503.288   120773865.237 7                        47.500    22982502.388  
  94109507.967 9                        41.500  
  25031376.714   131540747.695 2                        34.250    25031376.574  
 102499302.12816                        22.750  
  21082997.940   110791926.852 7                        50.750    21082996.460  
  86331370.021 9                        47.250  
  23622296.644   124136009.887 6                        46.500    23622295.484  
  96729349.362 8                        37.750  
  20214819.146   106229618.706 7                        51.250    20214818.746  
  82776339.382 9                        49.750  
  25546537.750   134247945.062 4                        37.250    25546536.850  
 104608773.189 7                        32.000  
  23614233.804   124093672.970 6                        45.750    23614234.264  
  96696390.963 8                        39.500  
  20447565.304   107452708.565 7                        51.250    20447564.364  
  83729394.630 9                        49.250  
  21385547.380   114318025.539 7                        48.500    21385554.220  
  88914047.972 8                        41.000  
  21287061.060   113951344.092 7                        49.000    21287061.640  
  88628836.756 9                        43.500  
  19290451.852   103299505.441 8                        51.250    19290455.352  
  80344103.920 9                        50.250  
  22345278.552   119322580.692 7                        47.250    22345287.812  
  92806504.595 9                        43.000  
  23793794.964   126834332.678 6                        42.000    23793808.344  
  98648994.466 7                        30.500  
  23192023.148   123887647.685 6                        44.500    23192031.968  
  96357100.239 9                        41.250  
  24370309.960   130410448.072 3                        36.250    24370316.780  
 101430375.695 7                        32.000  
  23771043.484   126891426.953 5                        40.500    23771052.724  
  98693371.928 8                        36.000  
  20253475.308   108342435.273 8                        51.500    20253482.708  
  84266358.652 9                        48.750  
  20411088.384   109147268.152 8                        51.250    20411094.104  
  84892356.222 9                        48.500  
 11 05 11  5 13 30.0000000  0 20G11G14G17G19G20G23G24G28G31G32R01R07 0.000000000
                                R08R09R10R16R17R22R23R24    
  20758774.222   109088115.307 7                        51.250    20758772.422  
  85003731.758 9                        48.500  
  23270633.526   122288013.836 6                        46.000    23270632.606  
  95289357.352 8                        36.500  
  22978735.428   120754064.912 7                        47.250    22978734.508  
  94094079.141 9                        41.250  
  25038551.114   131578449.413 2                        34.750    25038551.054  
 102528680.017 6                        24.000  
  21079030.680   110771078.744 7                        50.500    21079029.200  
  86315124.752 9                        47.250  
  23615373.644   124099629.406 6                        46.750    23615372.484  
  96701000.951 8                        38.250  
  20215499.786   106233195.535 7                        51.250    20215499.406  
  82779126.520 9                        49.500  
  25551218.410   134272542.183 5                        39.500    25551217.470  
 104627939.693 4                        12.500  
  23609760.804   124070167.378 6                        46.000    23609761.264  
  96678074.927 8                        39.000  
  20447370.464   107451684.603 7                        51.250    20447369.504  
  83728596.740 9                        49.250  
  21380060.040   114288692.530 7                        48.250    21380066.880  
  88891233.426 8                        41.000  
  21292762.280   113981863.065 8                        49.250    21292762.880  
  88652573.718 9                        43.500  
  19291121.372   103303090.672 8                        51.250    19291124.872  
  80346892.430 9                        50.250  
  22342015.972   119305158.774 7                        47.250    22342025.232  
  92792954.236 9                        43.000  
  23786215.604   126793930.677 6                        41.500    23786228.984  
  98617570.700 7                        31.750  
  23195198.248   123904608.542 6                        44.500    23195207.128  
  96370292.019 9                        41.250  
  24362330.780   130367749.970 4                        37.250    24362337.680  
 101397166.070 7                        32.500  
  23779654.804   126937394.382 5                        40.250    23779664.044  
  98729124.317 8                        36.750  
  20258301.728   108368253.325 8                        51.500    20258309.148  
  84286439.342 9                        48.750  
  20407816.324   109129770.916 8                        51.000    20407822.024  
  84878747.256 9                        48.500  
 11 05 11  5 13 40.0000000  0 20G11G14G17G19G20G23G24G28G31G32R01R07 0.000000000
                                R08R09R10R16R17R22R23R24    
  20762240.822   109106332.424 7                        51.250    20762239.042  
  85017926.903 9                        48.500  
  23276139.566   122316948.219 6                        46.250    23276138.646  
  95311903.604 8                        37.500  
  22974978.828   120734323.951 7                        47.250    22974977.928  
  94078696.582 9                        41.500  
  25045726.194   131616154.719 3                        37.000    25045726.274  
 102558060.700 7                        29.250  
  21075071.200   110750271.583 7                        50.500    21075069.720  
  86298911.384 9                        47.500  
  23608454.704   124063270.162 6                        46.500    23608453.564  
  96672669.091 8                        38.500  
  20216190.926   106236827.545 7                        51.250    20216190.566  
  82781956.653 9                        49.750  
  25555903.710   134297163.606 5                        39.500    25555902.810  
 104647125.305 6                        25.000  
  23605296.584   124046707.746 6                        45.000    23605297.024  
  96659794.717 8                        39.500  
  20447184.624   107450708.010 7                        51.000    20447183.684  
  83727835.754 9                        49.250  
  21374580.060   114259399.043 7                        48.750    21374586.940  
  88868449.619 8                        40.750  
  21298468.840   114012410.623 7                        48.750    21298469.440  
  88676332.913 9                        43.750  
  19291801.972   103306735.235 8                        51.250    19291805.472  
  80349727.088 9                        50.250  
  22338769.152   119287821.072 7                        47.500    22338778.432  
  92779469.369 9                        43.000  
  23778640.684   126753552.355 5                        40.000    23778654.044  
  98586165.353 7                        31.500  
  23198389.288   123921654.567 7                        45.250    23198398.208  
  96383550.013 8                        40.750  
  24354356.180   130325076.456 3                        36.250    24354363.200  
 101363975.564 7                        32.000  
  23788268.144   126983372.752 5                        39.250    23788277.424  
  98764885.196 8                        36.750  
  20263143.108   108394151.567 8                        51.500    20263150.568  
  84306582.400 9                        48.500  
  20404560.704   109112361.634 8                        51.250    20404566.404  
  84865206.706 9                        48.500  
 11 05 11  5 13 50.0000000  0 20G11G14G17G19G20G23G24G28G31G32R01R07 0.000000000
                                R08R09R10R16R17R22R23R24    
  20765719.342   109124612.060 7                        51.250    20765717.542  
  85032170.763 9                        48.500  
  23281654.306   122345928.299 6                        45.750    23281653.386  
  95334485.479 8                        37.000  
  22971234.768   120714648.746 7                        48.000    22971233.828  
  94063365.251 8                        41.000  
  25052903.154   131653869.851 4                        37.500    25052903.414  
 102587453.01718                        33.500  
  21071120.740   110729511.736 7                        50.750    21071119.240  
  86282734.880 9                        47.500  
  23601541.064   124026938.746 6                        46.500    23601539.924  
  96644358.917 8                        38.000  
  20216893.786   106240521.026 7                        51.500    20216893.426  
  82784834.684 9                        49.750  
  25560594.850   134321815.619 4                        38.000    25560593.970  
 104666334.682 6                        25.250  
  23600842.324   124023300.530 6                        45.500    23600842.764  
  96641555.349 8                        38.750  
  20447009.004   107449785.023 7                        51.000    20447008.044  
  83727116.548 9                        49.250  
  21369108.720   114230151.652 7                        48.750    21369115.640  
  88845701.658 8                        40.750  
  21304181.860   114042992.818 7                        48.750    21304182.460  
  88700119.048 9                        43.750  
  19292494.812   103310445.359 8                        51.500    19292498.332  
  80352612.745 9                        50.250  
  22335539.352   119270574.268 7                        47.500    22335548.652  
  92766055.194 9                        43.000  
  23771071.444   126713204.305 5                        40.000    23771084.804  
  98554783.563 7                        31.750  
  23201597.468   123938792.104 6                        44.500    23201606.428  
  96396879.197 8                        41.000  
  24346387.340   130282433.632 3                        36.250    24346394.400  
 101330808.933 7                        32.500  
  23796884.724   127029368.302 5                        40.250    23796894.024  
  98800659.451 8                        36.750  
  20268000.648   108420136.085 8                        51.500    20268008.128  
  84326792.566 9                        48.750  
  20401322.724   109095046.622 8                        51.000    20401328.424  
  84851739.470 9                        48.500  
 11 05 11  5 14  0.0000000  0 20G11G14G17G19G20G23G24G28G31G32R01R07 0.000000000
                                R08R09R10R16R17R22R23R24    
  20769206.222   109142935.730 7                        51.250    20769204.442  
  85046448.937 9                        48.500  
  23287174.226   122374935.651 6                        45.750    23287173.306  
  95357088.585 8                        38.000  
  22967499.708   120695020.960 7                        47.750    22967498.748  
  94048070.865 9                        41.250  
  25060078.494   131691576.354 3                        36.750    25060078.554  
 102616832.75317                        27.250  
  21067175.760   110708780.795 7                        50.750    21067174.280  
  86266580.902 9                        47.500  
  23594629.184   123990616.653 6                        46.750    23594628.024  
  96616056.012 8                        37.250  
  20217604.826   106244257.590 7                        51.500    20217604.466  
  82787746.286 9                        49.500  
  25565288.250   134346479.592 3                        37.000    25565287.370  
 104685553.346 6                        24.500  
  23596394.544   123999927.444 6                        45.750    23596395.004  
  96623342.593 8                        39.000  
  20446840.044   107448897.198 7                        51.000    20446839.104  
  83726424.736 9                        49.000  
  21363642.480   114200931.511 7                        48.750    21363649.420  
  88822974.897 8                        40.750  
  21309897.840   114073590.847 7                        49.000    21309898.460  
  88723917.509 9                        43.750  
  19293196.352   103314202.090 8                        51.250    19293199.872  
  80355534.640 9                        50.250  
  22332323.052   119253399.466 7                        48.000    22332332.332  
  92752697.030 9                        43.250  
  23763504.404   126672867.937 4                        38.500    23763517.744  
  98523410.857 7                        32.750  
  23204819.248   123956002.331 6                        44.500    23204828.228  
  96410264.889 8                        40.750  
  24338420.760   130239802.885 4                        37.250    24338427.880  
 101297651.682 7                        32.000  
  23805501.004   127075362.224 6                        41.500    23805510.324  
  98836432.426 8                        36.500  
  20272870.808   108446188.149 8                        51.500    20272878.288  
  84347055.264 9                        48.500  
  20398098.944   109077807.493 8                        51.000    20398104.604  
  84838331.259 9                        48.500  
 11 05 11  5 14 10.0000000  0 20G11G14G17G19G20G23G24G28G31G32R01R07 0.000000000
                                R08R09R10R16R17R22R23R24    
  20772702.142   109161306.905 7                        51.250    20772700.362  
  85060764.129 9                        48.500  
  23292699.966   122403973.574 6                        46.500    23292699.046  
  95379715.522 8                        37.000  
  22963774.348   120675444.014 7                        48.000    22963773.328  
  94032816.105 9                        41.750  
  25067252.834   131729277.576 3                        35.750    25067252.794  
 102646210.294 7                        27.000  
  21063236.980   110688082.314 7                        51.000    21063235.480  
  86250452.228 9                        47.250  
  23587719.784   123954307.506 7                        47.250    23587718.604  
  96587763.172 8                        38.000  
  20218324.726   106248040.729 7                        51.250    20218324.406  
  82790694.183 9                        49.500  
  25569984.610   134371158.967 3                        37.000    25569983.750  
 104704783.934 7                        26.250  
  23591953.964   123976592.083 6                        45.750    23591954.404  
  96605159.203 8                        38.500  
  20446678.464   107448048.045 7                        51.000    20446677.504  
  83725763.056 9                        49.250  
  21358182.040   114171742.314 7                        49.000    21358188.960  
  88800272.192 8                        40.750  
  21315617.480   114104208.453 7                        49.000    21315618.120  
  88747731.180 9                        43.500  
  19293907.292   103318009.168 8                        51.250    19293910.812  
  80358495.703 9                        50.250  
  22329120.952   119236300.583 7                        47.750    22329130.252  
  92739397.913 9                        43.000  
  23755940.244   126632546.926 5                        40.250    23755953.584  
  98492050.145 8                        33.250  
  23208055.288   123973288.649 6                        44.750    23208064.268  
  96423709.813 8                        40.500  
  24330457.160   130197187.954 3                        36.250    24330464.300  
 101264506.744 7                        31.000  
  23814117.604   127121357.900 5                        39.500    23814126.944  
  98872206.810 8                        35.750  
  20277754.248   108472311.225 8                        51.500    20277761.748  
  84367373.196 9                        48.500  
  20394889.984   109060647.680 8                        51.250    20394895.644  
  84824984.736 9                        48.500  
 11 05 11  5 14 20.0000000  0 20G11G14G17G19G20G23G24G28G31G32R01R07 0.000000000
                                R08R09R10R16R17R22R23R24    
  20776207.602   109179728.143 7                        51.250    20776205.822  
  85075118.328 9                        48.500  
  23298232.006   122433044.556 6                        46.250    23298231.086  
  95402368.223 8                        37.250  
  22960059.188   120655920.645 7                        48.000    22960058.128  
  94017603.085 9                        41.500  
  25074426.714   131766976.160 3                        36.250    25074426.554  
 102675585.787 7                        30.000  
  21059304.880   110667418.921 7                        50.750    21059303.380  
  86234350.880 9                        47.500  
  23580813.344   123918013.961 6                        47.000    23580812.124  
  96559482.502 8                        37.250  
  20219053.986   106251873.048 7                        51.250    20219053.686  
  82793680.401 9                        49.750  
  25574684.390   134395856.294 3                        35.750    25574683.590  
 104724028.671 7                        30.500  
  23587521.064   123953297.202 6                        46.250    23587521.504  
  96587007.358 8                        38.750  
  20446524.724   107447240.112 7                        51.000    20446523.764  
  83725133.500 9                        49.250  
  21352727.860   114142586.652 7                        48.750    21352734.780  
  88777595.577 8                        40.750  
  21321341.180   114134847.814 7                        48.750    21321341.820  
  88771561.779 9                        43.500  
  19294628.112   103321869.084 8                        51.250    19294631.612  
  80361497.860 9                        50.250  
  22325933.552   119219280.192 7                        48.000    22325942.872  
  92726159.845 9                        42.750  
  23748379.464   126592244.058 5                        39.750    23748392.844  
  98460703.493 7                        32.750  
  23211306.048   123990653.588 6                        44.000    23211315.028  
  96437215.875 8                        40.250  
  24322497.000   130154591.310 4                        37.500    24322504.080  
 101231376.015 7                        31.000  
  23822734.984   127167357.921 5                        40.500    23822744.344  
  98907984.533 8                        35.000  
  20282651.388   108498507.708 8                        51.500    20282658.908  
  84387748.217 9                        48.500  
  20391696.384   109043569.996 8                        51.000    20391702.044  
  84811702.097 9                        48.500  
 11 05 11  5 14 30.0000000  0 20G11G14G17G19G20G23G24G28G31G32R01R07 0.000000000
                                R08R09R10R16R17R22R23R24    
  20779724.142   109198207.749 7                        51.250    20779722.362  
  85089518.006 9                        48.500  
  23303771.946   122462157.043 6                        46.250    23303771.006  
  95425053.253 8                        37.250  
  22956355.888   120636459.494 7                        48.000    22956354.768  
  94002438.535 9                        42.000  
  25081601.614   131804680.301 3                        36.000    25081601.394  
 102704965.527 7                        33.000  
  21055381.060   110646799.110 7                        50.750    21055379.560  
  86218283.499 9                        47.500  
  23573911.524   123881744.552 6                        46.250    23573910.264  
  96531220.646 8                        37.500  
  20219794.226   106255763.004 7                        51.500    20219793.926  
  82796711.532 9                        49.500  
  25579389.130   134420579.759 3                        35.250    25579388.310  
 104743293.668 6                        26.000  
  23583097.524   123930051.326 6                        46.250    23583097.944  
  96568893.726 8                        40.750  
  20446380.424   107446481.850 7                        51.000    20446379.484  
  83724542.644 9                        49.000  
  21347281.600   114113473.151 7                        48.500    21347288.500  
  88754951.751 8                        40.750  
  21327070.580   114165517.717 7                        48.250    21327071.220  
  88795416.142 9                        43.500  
  19295360.392   103325790.381 8                        51.250    19295363.892  
  80364547.751 9                        50.250  
  22322762.512   119202346.986 7                        48.500    22322771.812  
  92712989.582 9                        43.000  
  23740823.744   126551968.080 6                        41.250    23740837.144  
  98429377.772 7                        32.500  
  23214573.128   124008105.722 6                        44.000    23214582.088  
  96450789.759 8                        40.000  
  24314541.980   130112022.292 4                        38.000    24314549.020  
 101198266.774 7                        32.000  
  23831354.744   127213370.587 5                        40.250    23831364.104  
  98943772.132 8                        35.250  
  20287563.908   108524786.267 8                        51.500    20287571.408  
  84408187.086 9                        48.500  
  20388519.804   109026583.289 8                        51.000    20388525.444  
  84798490.213 9                        48.500  
 11 05 11  5 14 40.0000000  0 20G11G14G17G19G20G23G24G28G31G32R01R07 0.000000000
                                R08R09R10R16R17R22R23R24    
  20783250.922   109216741.005 7                        51.250    20783249.142  
  85103959.499 9                        48.500  
  23309318.846   122491306.183 6                        46.500    23309317.926  
  95447766.859 8                        37.250  
  22952663.528   120617055.864 7                        47.500    22952662.388  
  93987318.842 9                        42.250  
  25088776.674   131842385.301 3                        36.250    25088776.534  
 102734345.971 7                        31.500  
  21051464.640   110626218.144 7                        50.750    21051463.120  
  86202246.392 9                        47.500  
  23567013.404   123845494.653 6                        47.000    23567012.144  
  96502973.997 8                        37.000  
  20220544.526   106259705.881 7                        51.250    20220544.246  
  82799783.901 9                        49.500  
  25584097.930   134445324.696 2                        33.250    25584097.730  
 104762603.34217                        26.500  
  23578682.424   123906849.772 6                        46.250    23578682.804  
  96550814.607 8                        39.500  
  20446244.684   107445768.542 7                        51.000    20446243.744  
  83723986.820 9                        49.250  
  21341842.320   114084397.061 7                        48.500    21341849.200  
  88732337.035 8                        40.750  
  21332804.800   114196213.437 7                        48.000    21332805.460  
  88819290.568 9                        43.500  
  19296103.232   103329768.319 8                        51.250    19296106.732  
  80367641.703 9                        50.250  
  22319606.912   119185496.397 7                        48.500    22319616.212  
  92699883.581 9                        42.750  
  23733272.264   126511714.615 6                        41.500    23733285.684  
  98398069.540 7                        32.750  
  23217855.628   124025640.133 6                        44.750    23217864.548  
  96464427.646 8                        40.250  
  24306591.200   130069475.961 4                        37.750    24306598.160  
 101165175.185 7                        32.250  
  23839975.964   127259391.005 5                        40.250    23839985.304  
  98979565.732 8                        34.750  
  20292490.808   108551141.906 8                        51.500    20292498.328  
  84428685.899 9                        48.500  
  20385359.348   109009682.875 8                        51.250    20385364.968  
  84785345.447 9                        48.500  
 11 05 11  5 14 50.0000000  0 20G11G14G17G19G20G23G24G28G31G32R01R07 0.000000000
                                R08R09R10R16R17R22R23R24    
  20786787.462   109235325.620 7                        51.250    20786785.682  
  85118441.000 9                        48.500  
  23314872.306   122520489.655 6                        46.000    23314871.386  
  95470507.228 8                        38.000  
  22948981.668   120597707.496 7                        47.500    22948980.528  
  93972242.185 9                        41.500  
  25095951.454   131880088.817 3                        35.500    25095951.394  
 102763725.338 6                        25.250  
  21047555.180   110605673.793 7                        50.750    21047553.660  
  86186237.807 9                        47.500  
  23560118.544   123809262.006 7                        47.250    23560117.284  
  96474740.770 8                        37.000  
  20221304.466   106263699.424 7                        51.250    20221304.206  
  82802895.747 9                        49.750  
  25588810.370   134470088.691 3                        36.000    25588811.070  
 104781903.08517                        30.250  
  23574275.364   123883690.455 6                        46.250    23574275.724  
  96532768.423 8                        39.000  
  20446117.064   107445097.858 7                        51.000    20446116.104  
  83723464.211 9                        49.250  
  21336409.620   114055356.035 7                        49.000    21336416.460  
  88709749.574 8                        40.500  
  21338543.340   114226932.262 7                        48.250    21338544.000  
  88843182.964 9                        43.250  
  19296856.252   103333800.688 8                        51.250    19296859.752  
  80370777.988 9                        50.250  
  22316466.372   119168726.056 7                        48.250    22316475.672  
  92686840.003 9                        42.750  
  23725724.564   126471481.330 5                        41.000    23725737.984  
  98366776.987 7                        32.250  
  23221153.048   124043254.415 6                        44.000    23221161.948  
  96478127.639 8                        41.000  
  24298644.220   130026949.999 3                        36.750    24298651.140  
 101132099.433 7                        32.500  
  23848598.204   127305416.891 5                        39.250    23848607.504  
  99015363.590 8                        35.000  
  20297431.688   108577572.178 8                        51.500    20297439.188  
  84449242.761 9                        48.500  
  20382214.588   108992866.281 8                        51.000    20382220.188  
  84772265.876 9                        48.500  
 11 05 11  5 15  0.0000000  0 20G11G14G17G19G20G23G24G28G31G32R01R07 0.000000000
                                R08R09R10R16R17R22R23R24    
  20790333.382   109253959.518 7                        51.000    20790331.622  
  85132960.911 9                        48.500  
  23320431.866   122549705.290 6                        46.000    23320430.946  
  95493272.626 8                        36.250  
  22945309.968   120578412.446 7                        47.500    22945308.828  
  93957207.077 9                        41.500  
  25103125.534   131917788.610 3                        35.750    25103125.454  
 102793101.691 7                        26.250  
  21043652.300   110585164.018 7                        51.000    21043650.780  
  86170256.163 9                        47.500  
  23553226.644   123773044.669 6                        46.750    23553225.304  
  96446519.469 8                        37.750  
  20222073.646   106267741.537 7                        51.250    20222073.406  
  82806045.443 9                        49.750  
  25593525.990   134494869.531 3                        35.750    25593528.030  
 104801212.759 8                        34.000  
  23569875.964   123860571.473 6                        46.000    23569876.304  
  96514753.658 8                        38.750  
  20445997.124   107444467.650 7                        51.250    20445996.184  
  83722973.138 9                        49.000  
  21330983.120   114026348.213 8                        49.250    21330989.920  
  88687187.944 8                        41.000  
  21344285.800   114257672.151 7                        48.250    21344286.480  
  88867091.754 9                        43.250  
  19297618.992   103337885.073 8                        51.250    19297622.492  
  80373954.728 9                        50.250  
  22313340.492   119152034.056 7                        48.000    22313349.772  
  92673857.351 9                        42.750  
  23718180.304   126431266.235 6                        42.000    23718193.724  
  98335498.633 7                        30.750  
  23224465.028   124060946.361 6                        44.500    23224473.928  
  96491888.057 8                        40.500  
  24290700.760   129984442.683 3                        36.500    24290707.600  
 101099038.181 8                        33.500  
  23857221.024   127351445.903 4                        39.000    23857230.304  
  99051163.886 8                        35.250  
  20302386.088   108604074.847 8                        51.500    20302393.588  
  84469855.934 9                        48.500  
  20379085.148   108976131.732 8                        51.250    20379090.748  
  84759250.105 9                        48.500  
 11 05 11  5 15 10.0000000  0 20G11G14G17G19G20G23G24G28G31G32R01R07 0.000000000
                                R08R09R10R16R17R22R23R24    
  20793888.082   109272639.569 7                        51.250    20793886.322  
  85147516.778 9                        48.500  
  23325996.966   122578949.993 6                        45.500    23325996.026  
  95516060.696 8                        38.000  
  22941647.828   120559167.786 7                        47.250    22941646.708  
  93942211.244 9                        41.750  
  25110298.294   131955481.550 3                        35.750    25110298.014  
 102822472.852 7                        30.500  
  21039755.420   110564685.720 7                        50.750    21039753.900  
  86154299.056 9                        47.750  
  23546337.064   123736839.676 6                        46.750    23546335.704  
  96418307.817 8                        37.250  
  20222851.486   106271829.158 7                        51.500    20222851.266  
  82809230.594 9                        49.750  
  25598244.210   134519664.023 3                        35.250    25598245.130  
 104820533.138 7                        29.500  
  23565483.664   123837489.815 6                        46.250    23565483.964  
  96496767.955 8                        38.750  
  20445884.344   107443874.979 7                        51.000    20445883.404  
  83722511.314 9                        49.250  
  21325562.220   113997370.433 7                        48.750    21325569.000  
  88664649.687 8                        41.000  
  21350031.660   114288430.146 7                        48.000    21350032.320  
  88891014.619 9                        43.500  
  19298390.852   103342018.404 8                        51.250    19298394.372  
  80377169.541 9                        50.250  
  22310228.732   119135417.455 7                        48.250    22310237.992  
  92660933.334 9                        42.250  
  23710638.904   126391066.356 5                        39.750    23710652.284  
  98304232.036 7                        31.000  
  23227790.968   124078712.861 6                        45.000    23227799.868  
  96505706.387 8                        40.250  
  24282760.200   129941951.035 2                        34.750    24282767.000  
 101065989.153 7                        32.000  
  23865843.884   127397474.974 5                        39.250    23865853.124  
  99086964.206 8                        35.250  
  20307353.428   108630646.751 8                        51.500    20307360.928  
  84490522.956 9                        48.500  
  20375970.448   108959476.013 8                        51.250    20375976.048  
  84746295.661 9                        48.500  
 11 05 11  5 15 20.0000000  0 20G11G14G17G19G20G23G24G28G31G32R01R07 0.000000000
                                R08R09R10R16R17R22R23R24    
  20797453.642   109291376.811 7                        51.250    20797451.922  
  85162117.216 9                        48.500  
  23331569.686   122608234.693 6                        45.500    23331568.726  
  95538879.903 8                        36.250  
  22937997.368   120539984.610 7                        47.500    22937996.288  
  93927263.321 9                        41.750  
  25117471.834   131993178.599 3                        35.250    25117471.394  
 102851847.150 5                        17.000  
  21035866.660   110544250.099 7                        50.750    21035865.120  
  86138375.201 9                        47.750  
  23539451.984   123700658.290 6                        47.000    23539450.604  
  96390114.563 8                        38.000  
  20223640.126   106275973.431 7                        51.500    20223639.906  
  82812459.892 9                        49.500  
  25602967.110   134544483.222 2                        33.250    25602967.870  
 104839872.778 7                        27.750  
  23561100.584   123814456.606 6                        46.000    23561100.844  
  96478820.020 8                        39.500  
  20445780.804   107443330.849 7                        51.250    20445779.844  
  83722087.323 9                        49.000  
  21320149.060   113968433.929 7                        48.750    21320155.820  
  88642143.534 8                        41.000  
  21355782.900   114319217.094 7                        48.000    21355783.600  
  88914960.012 9                        43.250  
  19299173.932   103346211.693 8                        51.250    19299177.432  
  80380430.987 9                        50.250  
  22307133.212   119118887.564 7                        48.250    22307142.452  
  92648076.767 9                        42.250  
  23703102.584   126350893.345 6                        41.750    23703115.924  
  98272986.390 7                        30.750  
  23231132.908   124096564.888 6                        44.250    23231141.788  
  96519591.295 8                        40.000  
  24274824.600   129899486.021 2                        34.250    24274831.360  
 101032960.841 7                        32.250  
  23874468.784   127443515.044 5                        39.250    23874477.984  
  99122773.087 8                        34.000  
  20312335.828   108657299.047 8                        51.500    20312343.288  
  84511252.507 9                        48.500  
  20372872.648   108942910.596 8                        51.250    20372878.228  
  84733411.452 9                        48.500  
 11 05 11  5 15 30.0000000  0 20G11G14G17G19G20G23G24G28G31G32R01R07 0.000000000
                                R08R09R10R16R17R22R23R24    
  20801029.042   109310165.578 7                        51.250    20801027.302  
  85176757.801 9                        48.250  
  23337148.906   122637553.671 6                        45.750    23337147.986  
  95561725.848 8                        35.250  
  22934357.588   120520857.398 7                        47.500    22934356.508  
  93912359.000 9                        41.250  
  25124645.094   132030874.141 2                        34.500    25124644.254  
 102881217.34417                        27.750  
  21031984.960   110523851.596 7                        51.000    21031983.400  
  86122480.268 9                        47.500  
  23532570.304   123664494.880 7                        47.250    23532568.924  
  96361935.293 8                        38.750  
  20224438.466   106280168.758 7                        51.500    20224438.246  
  82815728.971 9                        49.500  
  25607693.630   134569321.480 4                        39.000    25607693.910  
 104859227.267 7                        32.750  
  23556725.704   123791466.411 6                        46.000    23556725.924  
  96460905.611 8                        39.000  
  20445685.424   107442829.616 7                        51.250    20445684.464  
  83721696.750 9                        49.250  
  21314742.560   113939533.131 7                        48.750    21314749.300  
  88619665.137 8                        40.750  
  21361538.520   114350027.376 7                        48.500    21361539.200  
  88938923.538 9                        43.250  
  19299967.172   103350459.460 8                        51.250    19299970.672  
  80383734.802 9                        50.250  
  22304052.892   119102438.827 7                        48.000    22304062.072  
  92635283.319 9                        42.500  
  23695570.204   126310741.497 5                        39.750    23695583.504  
  98241757.206 7                        31.250  
  23234489.848   124114496.939 7                        45.250    23234498.708  
  96533538.425 8                        40.000  
  24266893.020   129857042.561 3                        36.000    24266899.740  
 100999949.255 7                        32.500  
  23883094.624   127489560.305 4                        38.750    23883103.844  
  99158586.059 8                        34.250  
  20317332.128   108684025.864 8                        51.500    20317339.588  
  84532040.017 9                        48.500  
  20369790.668   108926429.890 8                        51.000    20369796.248  
  84720593.125 9                        48.500  
 11 05 11  5 15 40.0000000  0 20G11G14G17G19G20G23G24G28G31G32R01R07 0.000000000
                                R08R09R10R16R17R22R23R24    
  20804615.642   109329013.291 7                        51.250    20804613.922  
  85191444.319 9                        48.500  
  23342736.086   122666914.360 6                        45.500    23342735.166  
  95584604.309 8                        36.750  
  22930729.868   120501793.677 7                        48.000    22930728.808  
  93897504.140 9                        41.250  
  25131819.434   132068575.528 3                        35.250    25131818.574  
 102910594.92015                        17.500  
  21028111.740   110503497.664 7                        51.000    21028110.180  
  86106620.057 9                        47.750  
  23525693.504   123628356.971 6                        46.750    23525692.104  
  96333775.890 8                        39.000  
  20225247.946   106284422.617 7                        51.500    20225247.726  
  82819043.661 9                        49.750  
  25612425.150   134594186.020 5                        40.000    25612425.270  
 104878602.235 8                        35.000  
  23552360.424   123768526.797 6                        46.500    23552360.644  
  96443030.601 8                        40.250  
  20445599.604   107442378.658 7                        51.250    20445598.644  
  83721345.356 9                        49.250  
  21309344.160   113910675.528 7                        48.750    21309350.880  
  88597220.349 8                        40.750  
  21367299.900   114380868.564 7                        47.750    21367300.580  
  88962911.118 9                        43.000  
  19300771.972   103354769.186 8                        51.250    19300775.492  
  80387086.813 9                        50.250  
  22300989.192   119086078.848 7                        48.000    22300998.312  
  92622558.889 9                        42.250  
  23688043.284   126270618.805 6                        41.250    23688056.544  
  98210550.672 7                        31.750  
  23237863.128   124132516.219 7                        45.250    23237871.948  
  96547553.404 8                        39.750  
  24258966.880   129814628.174 3                        35.750    24258973.560  
 100966960.315 7                        33.000  
  23891722.864   127535618.262 4                        38.000    23891732.064  
  99194408.849 8                        34.500  
  20322343.788   108710834.745 8                        51.500    20322351.228  
  84552891.348 9                        48.500  
  20366725.928   108910041.361 8                        51.000    20366731.508  
  84707846.490 9                        48.500  
 11 05 11  5 15 50.0000000  0 20G11G14G17G19G20G23G24G28G31G32R01R07 0.000000000
                                R08R09R10R16R17R22R23R24    
  20808210.162   109347902.665 7                        51.250    20808208.462  
  85206163.302 9                        48.500  
  23348327.866   122696299.373 6                        46.000    23348326.986  
  95607501.685 8                        36.000  
  22927110.988   120482776.281 7                        47.750    22927109.908  
  93882685.394 8                        41.000  
  25138991.614   132106265.473 2                        35.000    25138991.054  
 102939963.583 7                        29.750  
  21024243.760   110483171.152 7                        51.000    21024242.160  
  86090781.226 9                        47.500  
  23518818.304   123592227.517 6                        46.500    23518816.904  
  96305623.079 8                        37.500  
  20226065.306   106288717.812 7                        51.500    20226065.066  
  82822390.564 9                        49.750  
  25617158.390   134619059.506 4                        37.250    25617158.490  
 104897984.223 8                        34.500  
  23548001.524   123745620.628 6                        46.750    23548001.724  
  96425181.667 8                        39.750  
  20445520.104   107441960.864 7                        51.250    20445519.144  
  83721019.802 9                        49.250  
  21303950.580   113881843.818 7                        48.750    21303957.300  
  88574795.697 8                        40.750  
  21373063.820   114411723.335 7                        47.750    21373064.500  
  88986909.259 9                        43.250  
  19301585.112   103359123.487 8                        51.500    19301588.612  
  80390473.486 9                        50.250  
  22297938.892   119069790.312 7                        48.250    22297947.912  
  92609890.032 9                        42.750  
  23680518.564   126230507.640 6                        41.750    23680531.744  
  98179353.113 8                        33.500  
  23241249.468   124150605.330 6                        45.000    23241258.248  
  96561622.692 8                        39.750  
  24251042.940   129772225.618 3                        35.750    24251049.560  
 100933980.551 7                        32.750  
  23900350.204   127581671.373 4                        38.500    23900359.384  
  99230227.869 8                        34.750  
  20327367.488   108737708.043 8                        51.500    20327374.908  
  84573792.793 9                        48.500  
  20363675.268   108893728.085 8                        51.000    20363680.828  
  84695158.390 9                        48.500  
 11 05 11  5 16  0.0000000  0 20G11G14G17G19G20G23G24G28G31G32R01R07 0.000000000
                                R08R09R10R16R17R22R23R24    
  20811813.102   109366836.209 7                        51.250    20811811.402  
  85220916.700 9                        48.250  
  23353924.746   122725711.179 6                        45.750    23353923.906  
  95630419.963 8                        37.000  
  22923501.428   120463807.826 7                        47.500    22923500.308  
  93867904.770 9                        41.250  
  25146162.034   132143946.395 2                        34.750                  
                                                
  21020381.460   110462874.595 7                        51.000    21020379.860  
  86074965.728 9                        47.500  
  23511945.164   123556109.041 6                        46.750    23511943.784  
  96277478.840 8                        37.750  
  20226891.006   106293056.869 7                        51.500    20226890.786  
  82825771.641 9                        49.750  
  25621893.790   134643944.403 4                        39.000    25621893.950  
 104917375.077 7                        30.500  
  23543649.484   123722750.548 6                        46.750    23543649.664  
  96407360.830 8                        38.500  
  20445447.384   107441578.676 7                        51.250    20445446.404  
  83720721.995 9                        49.500  
  21298562.340   113853040.569 7                        48.750    21298569.060  
  88552393.188 8                        40.750  
  21378830.660   114442593.721 7                        48.250    21378831.360  
  89010919.540 9                        43.000  
  19302406.992   103363524.590 8                        51.500    19302410.492  
  80393896.566 9                        50.250  
  22294902.472   119053575.932 7                        48.250    22294911.432  
  92597278.862 9                        42.750  
  23672996.524   126190410.875 6                        41.500    23673009.664  
  98148166.782 8                        33.500  
  23244649.328   124168766.681 7                        45.250    23244658.068  
  96575748.173 8                        39.250  
  24243121.720   129729837.592 3                        35.500    24243128.300  
 100901012.074 7                        32.250  
  23908977.044   127627721.951 4                        38.250    23908986.264  
  99266044.964 8                        35.500  
  20332403.688   108764648.181 8                        51.500    20332411.088  
  84594746.215 9                        48.500  
  20360639.088   108877492.314 8                        51.000    20360644.668  
  84682530.566 9                        48.500  
 11 05 11  5 16 10.0000000  0 20G11G14G17G19G20G23G24G28G31G32R01R07 0.000000000
                                R08R09R10R16R17R22R23R24    
  20815429.662   109385841.297 7                        51.250    20815427.962  
  85235725.845 9                        48.250  
  23359531.946   122755177.172 6                        45.500    23359531.126  
  95653380.454 8                        37.250  
  22919906.428   120444915.861 6                        47.000    22919905.268  
  93853183.764 9                        42.250  
  25153335.934   132181645.559 2                        34.750                  
                                                
  21016530.120   110442635.509 7                        50.750    21016528.480  
  86059195.014 9                        47.500  
  23505079.364   123520029.097 7                        47.500    23505077.984  
  96249364.625 8                        38.250  
  20227730.286   106297467.307 7                        51.500    20227730.046  
  82829208.342 9                        49.750  
  25626636.610   134668868.182 4                        37.250    25626636.670  
 104936796.150 7                        29.750  
  23539309.564   123699944.162 6                        47.000    23539309.724  
  96389589.638 8                        38.500  
  20445386.644   107441259.561 7                        51.250    20445385.684  
  83720473.332 9                        49.250  
  21293184.600   113824293.555 7                        48.750    21293191.340  
  88530034.408 8                        40.750  
  21384605.640   114473507.593 7                        47.750    21384606.320  
  89034963.648 9                        43.250  
  19303242.872   103368000.668 8                        51.250    19303246.352  
  80397377.958 9                        50.250  
  22291885.152   119037463.593 7                        48.250    22291894.072  
  92584747.055 9                        43.000  
  23665482.464   126150356.494 5                        40.750    23665495.544  
  98117013.401 8                        33.250  
  23248067.928   124187028.130 7                        45.500    23248076.608  
  96589951.513 8                        39.500  
  24235208.420   129687492.077 3                        36.500    24235214.960  
 100868076.701 7                        31.750  
  23917608.644   127673797.809 4                        37.500    23917617.884  
  99301881.681 8                        35.250  
  20337457.568   108791683.018 8                        51.500    20337464.968  
  84615773.298 9                        48.500  
  20357622.688   108861362.260 8                        51.000    20357628.268  
  84669984.966 9                        48.500  
 11 05 11  5 16 20.0000000  0 20G11G14G17G19G20G23G24G28G31G32R01R07 0.000000000
                                R08R09R10R16R17R22R23R24    
  20819053.662   109404885.553 7                        51.250    20819052.002  
  85250565.521 9                        48.250  
  23365143.266   122784664.878 6                        45.500    23365142.486  
  95676357.863 8                        37.500  
  22916319.788   120426068.048 6                        47.000    22916318.648  
  93838497.165 9                        41.750  
  25160507.174   132219330.622 2                        33.500    25160507.314  
 103028067.12618                        35.000  
  21012683.540   110422421.516 7                        50.750    21012681.880  
  86043443.855 9                        47.750  
  23498214.744   123483955.341 7                        47.250    23498213.364  
  96221255.225 8                        38.250  
  20228576.966   106301916.667 7                        51.500    20228576.746  
  82832675.374 9                        49.750  
  25631380.630   134693798.294 3                        35.500    25631380.650  
 104956222.197 7                        27.000  
  23534975.624   123677169.156 6                        46.750    23534975.764  
  96371842.917 8                        39.250  
  20445331.744   107440971.062 7                        51.250    20445330.784  
  83720248.532 9                        49.500  
  21287811.260   113795570.091 7                        48.750    21287818.020  
  88507693.940 8                        40.500  
  21390382.600   114504432.053 7                        48.000    21390383.280  
  89059015.985 9                        43.500  
  19304086.572   103372518.593 8                        51.500    19304090.052  
  80400891.903 9                        50.250  
  22288880.832   119021420.558 7                        48.500    22288889.692  
  92572269.154 9                        43.250  
  23657970.224   126110311.771 5                        41.000    23657983.244  
  98085867.542 7                        33.000  
  23251499.088   124205356.635 6                        45.000    23251507.688  
  96604207.013 8                        39.500  
  24227296.900   129645156.118 4                        38.000    24227303.400  
 100835148.734 7                        32.000  
  23926238.824   127719866.056 3                        36.000    23926248.104  
  99337712.469 8                        34.750  
  20342522.968   108818779.372 8                        51.500    20342530.328  
  84636848.219 9                        48.500  
  20354619.908   108845304.922 8                        51.250    20354625.468  
  84657495.932 9                        48.500  
 11 05 11  5 16 30.0000000  0 20G11G14G17G19G20G23G24G28G31G32R01R07 0.000000000
                                R08R09R10R16R17R22R23R24    
  20822687.762   109423982.849 7                        51.250    20822686.102  
  85265446.516 9                        48.500  
  23370761.346   122814188.156 6                        45.000    23370760.626  
  95699362.997 8                        37.000  
  22912744.228   120407278.450 7                        47.250    22912743.108  
  93823855.922 9                        42.000  
  25167678.394   132257015.580 1                        33.000    25167680.154  
 103057436.08618                        35.500  
  21008844.400   110402246.617 7                        50.750    21008842.720  
  86027723.163 9                        47.500  
  23491354.024   123447901.980 6                        47.000    23491352.644  
  96193161.719 8                        38.250  
  20229433.746   106306418.958 7                        51.500    20229433.486  
  82836183.644 9                        49.750  
  25636128.530   134718748.622 3                        36.250    25636128.510  
 104975664.005 8                        34.250  
  23530650.324   123654439.580 6                        46.750    23530650.444  
  96354131.580 8                        39.250  
  20445285.344   107440727.155 7                        51.250    20445284.364  
  83720058.475 9                        49.250  
  21282444.960   113766884.265 7                        48.750    21282451.720  
  88485382.756 8                        40.500  
  21396164.220   114535381.526 7                        48.250    21396164.920  
  89083087.775 9                        43.250  
  19304940.712   103377092.500 8                        51.500    19304944.192  
  80404449.383 9                        50.250  
  22285892.132   119005461.083 7                        48.250    22285900.972  
  92559856.256 9                        43.000  
  23650462.504   126070291.268 5                        41.000    23650475.504  
  98054740.496 7                        32.750  
  23254945.448   124223766.273 6                        44.250    23254953.968  
  96618525.581 8                        39.750  
  24219389.920   129602844.442 4                        37.250    24219396.400  
 100802239.647 7                        32.750  
  23934870.124   127765940.452 3                        37.000    23934879.484  
  99373548.081 8                        34.250  
  20347602.528   108845951.539 8                        51.500    20347609.888  
  84657982.115 9                        48.500  
  20351633.448   108829334.995 8                        51.000    20351639.008  
  84645074.873 9                        48.500  
 11 05 11  5 16 40.0000000  0 20G11G14G17G19G20G23G24G28G31G32R01R07 0.000000000
                                R08R09R10R16R17R22R23R24    
  20826332.342   109443135.133 7                        51.250    20826330.662  
  85280370.364 9                        48.500  
  23376386.546   122843748.853 6                        45.250    23376385.866  
  95722397.287 8                        37.250  
  22909180.128   120388549.165 7                        47.500    22909179.048  
  93809261.682 9                        42.000  
  25174849.934   132294702.235 1                        31.250                  
                                                
  21005013.080   110382112.842 7                        51.000    21005011.380  
  86012034.505 9                        47.500  
  23484497.544   123411871.024 6                        47.000    23484496.184  
  96165085.674 8                        38.250  
  20230300.946   106310976.177 7                        51.500    20230300.706  
  82839734.720 9                        49.750  
  25640880.470   134743736.18413                        36.000    25640879.070  
 104995111.16418                        34.000  
  23526334.084   123631757.622 6                        47.000    23526334.204  
  96336457.350 8                        39.750  
  20445247.804   107440529.860 7                        51.250    20445246.824  
  83719904.738 9                        49.500  
  21277086.140   113738238.343 7                        48.500    21277092.900  
  88463102.593 8                        40.750  
  21401950.800   114566357.477 7                        47.750    21401951.520  
  89107180.175 9                        43.250  
  19305805.732   103381724.571 8                        51.500    19305809.212  
  80408052.104 9                        50.250  
  22282919.492   118989587.332 7                        48.250    22282928.312  
  92547510.022 9                        43.500  
  23642959.744   126030297.112 5                        40.750    23642972.724  
  98023633.978 7                        32.250  
  23258407.348   124242258.999 6                        44.750    23258415.788  
  96632908.781 8                        39.750  
  24211487.780   129560558.735 4                        37.750    24211494.240  
 100769350.757 7                        32.000  
  23943503.024   127812023.216 3                        36.000    23943512.464  
  99409390.179 8                        33.500  
  20352696.628   108873201.413 8                        51.500    20352703.968  
  84679176.447 9                        48.500  
  20348663.628   108813454.067 8                        51.000    20348669.188  
  84632723.043 9                        48.500  
 11 05 11  5 16 50.0000000  0 20G11G14G17G19G20G23G24G28G31G32R01R07 0.000000000
                                R08R09R10R16R17R22R23R24    
  20829985.682   109462333.519 7                        51.250    20829984.022  
  85295330.129 9                        48.250  
  23382017.166   122873338.047 6                        44.750    23382016.526  
  95745453.784 8                        38.250  
  22905625.828   120369871.400 7                        47.750    22905624.788  
  93794707.579 9                        41.250  
  25182020.074   132332408.54411                        31.000    25182024.094  
 103116184.71618                        33.250  
  21001187.920   110362011.404 7                        51.000    21001186.200  
  85996371.051 9                        47.250  
  23477643.644   123375853.646 7                        47.500    23477642.264  
  96137020.190 8                        37.750  
  20231176.926   106315579.462 7                        51.500    20231176.686  
  82843321.689 9                        49.500  
  25645635.090   134768721.878 5                        39.250    25645633.770  
 105014580.510 8                        33.750  
  23522025.224   123609114.450 6                        47.000    23522025.324  
  96318813.336 8                        39.500  
  20445217.424   107440370.302 7                        51.250    20445216.464  
  83719780.407 9                        49.250  
  21271733.060   113709623.167 7                        48.750    21271739.820  
  88440846.368 8                        40.750  
  21407740.700   114597351.297 7                        47.750    21407741.440  
  89131286.453 9                        43.000  
  19306679.892   103386405.671 8                        51.250    19306683.372  
  80411692.954 9                        50.250  
  22279961.212   118973790.360 7                        48.500    22279970.052  
  92535223.500 9                        43.250  
  23635460.204   125990320.282 5                        41.000    23635473.164  
  97992540.900 7                        31.500  
  23261883.108   124260825.810 6                        44.000    23261891.508  
  96647349.624 8                        39.750  
  24203588.940   129518290.484 3                        37.000    24203595.380  
 100736475.478 7                        33.000  
  23952135.764   127858105.107 3                        37.000    23952145.284  
  99445231.614 7                        31.750  
  20357803.508   108900519.711 8                        51.500    20357810.848  
  84700423.993 9                        48.500  
  20345708.868   108797653.590 8                        51.250    20345714.428  
  84620433.787 9                        48.500  
 11 05 11  5 17  0.0000000  0 19G11G14G17G20G23G24G28G31G32R01R07R08 0.000000000
                                R09R10R16R17R22R23R24       
  20833647.262   109481575.150 7                        51.250    20833645.602  
  85310323.597 9                        48.250  
  23387652.684   122902952.831 6                        44.750    23387652.064  
  95768530.218 8                        36.250  
  22902080.828   120351242.389 7                        47.750    22902079.808  
  93780191.460 8                        40.750  
  20997368.380   110341939.573 7                        50.750    20997366.640  
  85980730.665 9                        47.500  
  23470791.804   123339847.100 7                        47.500    23470790.404  
  96108963.146 8                        38.250  
  20232061.146   106320226.009 7                        51.500    20232060.886  
  82846942.369 9                        49.750  
  25650391.650   134793717.701 4                        37.250    25650390.410  
 105034057.787 7                        33.000  
  23517723.204   123586507.303 6                        47.000    23517723.324  
  96301197.398 8                        39.750  
  20445193.704   107440245.565 7                        51.250    20445192.724  
  83719683.212 9                        49.250  
  21266385.220   113681036.004 7                        48.750    21266392.000  
  88418611.920 8                        40.750  
  21413533.340   114628359.635 7                        47.750    21413534.100  
  89155404.024 9                        43.250  
  19307562.632   103391132.715 8                        51.250    19307566.112  
  80415369.543 9                        50.250  
  22277016.832   118958067.559 7                        48.500    22277025.692  
  92522994.678 9                        43.000  
  23627963.444   125950358.159 5                        40.500    23627976.364  
  97961459.291 7                        31.750  
  23265372.168   124279463.737 6                        44.250    23265380.548  
  96661845.744 8                        39.750  
  24195692.860   129476037.053 3                        36.250    24195699.320  
 100703611.734 8                        33.250  
  23960767.764   127904183.069 3                        37.000    23960777.344  
  99481070.043 7                        32.500  
  20362922.648   108927903.567 8                        51.250    20362929.988  
  84721722.535 9                        48.250  
  20342768.628   108781930.735 8                        51.250    20342774.188  
  84608204.898 9                        48.500  
 11 05 11  5 17 10.0000000  0 19G11G14G17G20G23G24G28G31G32R01R07R08 0.000000000
                                R09R10R16R17R22R23R24       
  20837320.302   109500877.037 7                        51.500    20837318.642  
  85325364.019 9                        48.250  
  23393296.284   122932610.178 6                        45.250    23393295.704  
  95791639.815 8                        37.750  
  22898548.348   120332679.218 7                        47.250    22898547.368  
  93765726.656 9                        41.750  
  20993557.700   110321914.272 7                        50.750    20993555.940  
  85965126.540 9                        48.000  
  23463945.304   123303868.449 6                        47.000    23463943.904  
  96080927.878 8                        37.500  
  20232956.826   106324932.852 7                        51.500    20232956.566  
  82850610.035 9                        49.750  
  25655153.350   134818740.527 4                        37.250    25655152.210  
 105053556.142 7                        30.000  
  23513431.324   123563953.334 6                        47.000    23513431.424  
  96283622.899 8                        40.000  
  20445179.824   107440172.689 7                        51.000    20445178.844  
  83719626.425 9                        49.500  
  21261045.860   113652494.148 7                        48.500    21261052.640  
  88396412.707 8                        41.000  
  21419331.940   114659400.000 7                        47.750    21419332.740  
  89179546.517 9                        43.000  
  19308457.212   103395923.123 8                        51.500    19308460.692  
  80419095.415 9                        50.250  
  22274089.552   118942436.071 7                        48.000    22274098.412  
  92510836.860 9                        43.250  
  23620472.684   125910428.146 6                        42.000    23620485.564  
  97930402.615 7                        31.750  
  23268877.748   124298189.777 6                        44.000    23268886.088  
  96676410.431 8                        39.750  
  24187802.820   129433815.955 3                        35.500    24187809.300  
 100670773.093 8                        33.500  
  23969402.264   127950274.320 3                        35.750    23969411.904  
  99516918.765 7                        32.750  
  20368057.248   108955370.103 8                        51.500    20368064.568  
  84743085.379 9                        48.500  
  20339846.148   108766302.863 8                        51.500    20339851.688  
  84596049.882 9                        48.500  
 11 05 11  5 17 20.0000000  0 19G11G14G17G20G23G24G28G31G32R01R07R08 0.000000000
                                R09R10R16R17R22R23R24       
  20841003.122   109520230.242 7                        51.500    20841001.442  
  85340444.432 9                        48.500  
  23398946.264   122962301.084 6                        45.500    23398945.724  
  95814775.569 8                        37.750  
  22895026.748   120314173.129 7                        47.500    22895025.788  
  93751306.325 9                        41.250  
  20989754.180   110301926.653 7                        50.750    20989752.420  
  85949551.772 9                        47.750  
  23457102.404   123267908.925 7                        47.500    23457101.044  
  96052907.506 8                        37.750  
  20233862.326   106329691.174 7                        51.500    20233862.026  
  82854317.814 9                        49.750  
  25659918.510   134843781.554 4                        37.250    25659917.450  
 105073068.623 7                        31.500  
  23509147.884   123541443.766 6                        46.500    23509147.964  
  96266082.996 8                        39.250  
  20445174.124   107440142.756 7                        51.250    20445173.144  
  83719603.098 9                        49.500  
  21255713.300   113623988.695 7                        48.750    21255720.120  
  88374241.805 8                        41.000  
  21425134.860   114690463.440 7                        47.750    21425135.660  
  89203706.954 9                        43.000  
  19309361.892   103400767.625 8                        51.500    19309365.372  
  80422863.358 9                        50.250  
  22271177.712   118926887.117 7                        48.000    22271186.592  
  92498743.246 9                        43.250  
  23612986.324   125870521.618 6                        42.250    23612999.184  
  97899364.242 7                        32.750  
  23272398.128   124316995.042 6                        44.000    23272406.468  
  96691036.728 8                        40.000  
  24179917.140   129391617.960 4                        37.250    24179923.600  
 100637952.449 7                        32.750  
  23978037.544   127996369.772 3                        35.250    23978047.244  
  99552770.707 8                        33.250  
  20373205.608   108982910.266 8                        51.500    20373212.928  
  84764505.488 9                        48.500  
  20336939.728   108750760.878 8                        51.250    20336945.268  
  84583961.676 9                        48.500  
 11 05 11  5 17 30.0000000  0 19G11G14G17G20G23G24G28G31G32R01R07R08 0.000000000
                                R09R10R16R17R22R23R24       
  20844695.122   109539631.652 7                        51.250    20844693.442  
  85355562.399 9                        48.250  
  23404602.064   122992022.408 6                        45.500    23404601.504  
  95837935.029 8                        38.000  
  22891515.448   120295721.192 7                        47.250    22891514.508  
  93736928.192 9                        41.250  
  20985957.280   110281973.803 7                        50.750    20985955.500  
  85934004.103 9                        47.750  
  23450262.604   123231965.546 7                        47.750    23450261.244  
  96024899.682 8                        38.500  
  20234777.006   106334497.873 7                        51.500    20234776.726  
  82858063.290 9                        49.750  
  25664686.530   134868837.684 2                        34.250    25664685.510  
 105092592.802 7                        28.250  
  23504872.304   123518975.659 6                        47.000    23504872.384  
  96248575.393 8                        39.250  
  20445176.004   107440152.698 7                        51.250    20445175.044  
  83719610.846 9                        49.500  
  21250386.980   113595516.475 7                        49.000    21250393.800  
  88352096.754 8                        41.000  
  21430941.520   114721546.849 7                        48.000    21430942.320  
  89227882.924 9                        43.000  
  19310276.112   103405663.312 8                        51.500    19310279.612  
  80426671.115 9                        50.250  
  22268280.812   118911417.819 7                        48.250    22268289.672  
  92486711.580 9                        43.500  
  23605503.784   125830635.624 5                        41.000    23605516.644  
  97868341.792 7                        33.000  
  23275932.728   124335876.249 6                        44.250    23275941.068  
  96705722.067 8                        39.750  
  24172035.280   129349440.476 3                        35.500    24172041.740  
 100605147.758 8                        33.250  
  23986673.000   128042466.140 3                        35.500    23986682.740  
  99588623.377 8                        33.250  
  20378367.108   109010520.680 8                        51.500    20378374.408  
  84785980.239 9                        48.250  
  20334048.828   108735301.891 8                        51.250    20334054.368  
  84571938.013 9                        48.500  
 11 05 11  5 17 40.0000000  0 18G11G14G17G20G23G24G31G32R01R07R08R09 0.000000000
                                R10R16R17R22R23R24          
  20848397.662   109559088.591 7                        51.250    20848395.982  
  85370723.639 9                        48.500  
  23410265.064   123021781.567 6                        45.250    23410264.504  
  95861123.960 8                        36.500  
  22888015.868   120277330.832 7                        47.500    22888014.928  
  93722598.042 9                        42.000  
  20982168.402   110262063.126 7                        50.750    20982166.622  
  85918489.298 9                        47.500  
  23443427.324   123196045.892 7                        47.750    23443425.904  
  95996910.347 8                        37.500  
  20235702.326   106339360.444 7                        51.500    20235702.026  
  82861852.300 9                        49.750  
  23500606.084   123496556.611 7                        47.250    23500606.164  
  96231106.019 8                        39.250  
  20445186.884   107440209.905 7                        51.000    20445185.924  
  83719655.420 9                        49.500  
  21245068.280   113567085.136 7                        49.000    21245075.140  
  88329983.509 9                        41.250  
  21436753.180   114752657.163 7                        47.500    21436754.000  
  89252079.820 9                        43.000  
  19311201.312   103410617.721 8                        51.500    19311204.812  
  80430524.542 9                        50.250  
  22265400.192   118896035.616 7                        48.250    22265409.072  
  92474747.665 9                        43.250  
  23598026.524   125790777.735 6                        42.500    23598039.384  
  97837341.270 8                        33.250  
  23279482.968   124354840.935 6                        44.500    23279491.308  
  96720472.418 8                        39.750  
  24164158.720   129307291.369 2                        34.750    24164165.180  
 100572365.128 7                        31.500  
  23995309.980   128088570.829 4                        37.500    23995319.800  
  99624482.528 8                        33.500  
  20383543.168   109038209.014 8                        51.250    20383550.468  
  84807515.594 9                        48.250  
  20331174.908   108719933.648 8                        51.250    20331180.448  
  84559984.939 9                        48.500  
 11 05 11  5 17 50.0000000  0 18G11G14G17G20G23G24G31G32R01R07R08R09 0.000000000
                                R10R16R17R22R23R24          
  20852109.282   109578593.121 7                        51.250    20852107.582  
  85385921.965 9                        48.500  
  23415933.724   123051570.473 6                        45.500    23415933.184  
  95884336.081 8                        37.500  
  22884526.528   120258994.251 7                        47.500    22884525.588  
  93708309.796 9                        41.750  
  20978386.042   110242186.766 7                        50.750    20978384.262  
  85903001.229 9                        47.500  
  23436595.064   123160142.113 7                        47.250    23436593.604  
  95968933.389 8                        38.250  
  20236636.786   106344270.999 7                        51.500    20236636.486  
  82865678.700 9                        49.750  
  23496347.724   123474178.831 7                        47.250    23496347.784  
  96213668.820 8                        39.250  
  20445205.264   107440306.508 7                        51.000    20445204.304  
  83719730.696 9                        49.250  
  21239755.760   113538686.685 7                        48.750    21239762.640  
  88307895.838 8                        41.000  
  21442568.460   114783786.745 7                        47.500    21442569.300  
  89276291.691 9                        42.750  
  19312135.932   103415622.544 8                        51.250    19312139.432  
  80434417.176 9                        50.250  
  22262534.432   118880732.671 7                        48.000    22262543.312  
  92462845.387 9                        43.250  
  23590553.024   125750940.028 6                        42.500    23590565.904  
  97806356.397 8                        33.250  
  23283047.288   124373880.922 6                        44.250    23283055.628  
  96735281.253 8                        39.750  
  24156285.820   129265161.883 3                        35.750    24156292.300  
 100539597.777 7                        31.250  
  24003947.040   128134675.887 3                        37.000    24003956.940  
  99660341.970 8                        33.500  
  20388732.244   109065966.981 8                        51.250    20388739.524  
  84829105.105 9                        48.250  
  20328316.468   108704648.156 8                        51.250    20328321.988  
  84548096.227 9                        48.500  
